{"type":"FeatureCollection","features":[{"type":"Feature","properties":{"address":"165 1st Ave New York NY, 10003","name":"*commodities/all Nat Co-d"},"geometry":{"type":"Point","coordinates":[-73.984304,40.728978]}},{"type":"Feature","properties":{"address":"1201 Avenue U Brooklyn NY, 11229","name":"1201 Deli And Grill"},"geometry":{"type":"Point","coordinates":[-73.960042,40.598436]}},{"type":"Feature","properties":{"address":"1252 Saint Nicholas Ave New York NY, 10032","name":"1252 Deli Grocery Corp"},"geometry":{"type":"Point","coordinates":[-73.937622,40.843995]}},{"type":"Feature","properties":{"address":"1408 Saint Nicholas Ave New York NY, 10033","name":"1408 Saint Nicholas Deli"},"geometry":{"type":"Point","coordinates":[-73.933995,40.84896]}},{"type":"Feature","properties":{"address":"395 E 149th St Bronx NY, 10455","name":"149 Deli"},"geometry":{"type":"Point","coordinates":[-73.918059,40.816183]}},{"type":"Feature","properties":{"address":"1613 St Nicholas Ave New York NY, 10040","name":"1613 Food Deli"},"geometry":{"type":"Point","coordinates":[-73.929351,40.85531]}},{"type":"Feature","properties":{"address":"1624 Newkirk Brooklyn NY, 11226","name":"1624 Deli Grocery"},"geometry":{"type":"Point","coordinates":[-73.961845,40.636247]}},{"type":"Feature","properties":{"address":"197 8th Ave New York NY, 10011","name":"197 8th Avenue Deli"},"geometry":{"type":"Point","coordinates":[-73.999769,40.743538]}},{"type":"Feature","properties":{"address":"18 1st Ave New York NY, 10009","name":"1st Avenue Deli"},"geometry":{"type":"Point","coordinates":[-73.988237,40.723571]}},{"type":"Feature","properties":{"address":"138-37 Queens Blvd Queens NY, 11435","name":"2296 Keyfood Corporation"},"geometry":{"type":"Point","coordinates":[-73.817701,40.707974]}},{"type":"Feature","properties":{"address":"234 8th Ave New York NY, 10011","name":"234 Deli"},"geometry":{"type":"Point","coordinates":[-73.99906,40.744508]}},{"type":"Feature","properties":{"address":"239 8th Ave New York NY, 10011","name":"239 Deli"},"geometry":{"type":"Point","coordinates":[-73.99886,40.744784]}},{"type":"Feature","properties":{"address":"1521 Kings Highway Brooklyn NY, 11229","name":"24hr Newstand & Grocery"},"geometry":{"type":"Point","coordinates":[-73.957412,40.609136]}},{"type":"Feature","properties":{"address":"1045 Saint Nicholas Ave New York NY, 10032","name":"3 Star Deli Grocery Inc"},"geometry":{"type":"Point","coordinates":[-73.940073,40.836615]}},{"type":"Feature","properties":{"address":"480 10th Ave New York NY, 10018","name":"37st Food Market Deli"},"geometry":{"type":"Point","coordinates":[-73.99782,40.756418]}},{"type":"Feature","properties":{"address":"251 6th Ave New York NY, 10014","name":"4 Way Deli"},"geometry":{"type":"Point","coordinates":[-74.002596,40.728921]}},{"type":"Feature","properties":{"address":"442 Riverdale Ave Yonkers NY, 10705","name":"442 Riverdale Deli"},"geometry":{"type":"Point","coordinates":[-73.901607,40.917136]}},{"type":"Feature","properties":{"address":"488 6th Ave New York NY, 10011","name":"6th Avenue News & Tobbaco"},"geometry":{"type":"Point","coordinates":[-73.997688,40.736193]}},{"type":"Feature","properties":{"address":"235 Bushwick Ave Brooklyn NY, 11206","name":"7 Seas Grocery"},"geometry":{"type":"Point","coordinates":[-73.939886,40.70799]}},{"type":"Feature","properties":{"address":"7-93 Wyckoff Ave Ridgewood NY, 11385","name":"793 Wykoff Deli"},"geometry":{"type":"Point","coordinates":[-73.908924,40.698339]}},{"type":"Feature","properties":{"address":"810 Grand St Brooklyn NY, 11211","name":"810 Grand Deli"},"geometry":{"type":"Point","coordinates":[-73.941074,40.71191]}},{"type":"Feature","properties":{"address":"85-01 Jamaica Ave Woodhaven NY, 11421","name":"85th Street Deli"},"geometry":{"type":"Point","coordinates":[-73.859026,40.692526]}},{"type":"Feature","properties":{"address":"89-50 92nd St Woodhaven NY, 11421","name":"91st Ave Food Corp"},"geometry":{"type":"Point","coordinates":[-73.851498,40.689568]}},{"type":"Feature","properties":{"address":"607 Forest Ave Staten Island NY, 10310","name":"A & S Forest Food"},"geometry":{"type":"Point","coordinates":[-74.109483,40.630009]}},{"type":"Feature","properties":{"address":"2908 Stillwell Ave Brooklyn NY, 11224","name":"A & T Grocery"},"geometry":{"type":"Point","coordinates":[-73.981465,40.576542]}},{"type":"Feature","properties":{"address":"523 Grand St New York NY, 10002","name":"A.n.s Deli"},"geometry":{"type":"Point","coordinates":[-73.981768,40.714498]}},{"type":"Feature","properties":{"address":"1 Abington Square New York NY, 10014","name":"Abington Square Market"},"geometry":{"type":"Point","coordinates":[-74.005532,40.736899]}},{"type":"Feature","properties":{"address":"85-15 Main St Jamaica NY, 11435","name":"Adams Bagels"},"geometry":{"type":"Point","coordinates":[-73.819078,40.709597]}},{"type":"Feature","properties":{"address":"351 Bedford Ave Brooklyn NY, 11211","name":"Aden Food Market Corp"},"geometry":{"type":"Point","coordinates":[-73.963051,40.711793]}},{"type":"Feature","properties":{"address":"244 Roebling St Brooklyn NY, 11211","name":"Aden Gourmet Deli"},"geometry":{"type":"Point","coordinates":[-73.959656,40.711223]}},{"type":"Feature","properties":{"address":"108 9th Ave New York NY, 10011","name":"Alaska Deli"},"geometry":{"type":"Point","coordinates":[-74.003892,40.742977]}},{"type":"Feature","properties":{"address":"37-01 31st Ave Astoria NY, 11103","name":"All Night Candy Corner Corp"},"geometry":{"type":"Point","coordinates":[-73.918569,40.762013]}},{"type":"Feature","properties":{"address":"1520 Ave J Brooklyn NY, 11230","name":"Amazing Deals"},"geometry":{"type":"Point","coordinates":[-73.96067,40.625264]}},{"type":"Feature","properties":{"address":"218 Broadway Brooklyn NY, 11211","name":"American Choice Gourmet Deli"},"geometry":{"type":"Point","coordinates":[-73.960993,40.709483]}},{"type":"Feature","properties":{"address":"97 Franklin St Brooklyn NY, 11222","name":"American Deli & Market"},"geometry":{"type":"Point","coordinates":[-73.957512,40.729273]}},{"type":"Feature","properties":{"address":"1264 Randall Ave Bronx NY, 10474","name":"Americo Gas"},"geometry":{"type":"Point","coordinates":[-73.887055,40.812038]}},{"type":"Feature","properties":{"address":"240 E 45th St New York NY, 10017","name":"Amish Farms-240 East 45 St"},"geometry":{"type":"Point","coordinates":[-73.971324,40.751969]}},{"type":"Feature","properties":{"address":"731 9th Ave New York NY, 10019","name":"Amish Manhatten Farm Mkt"},"geometry":{"type":"Point","coordinates":[-73.989179,40.763151]}},{"type":"Feature","properties":{"address":"118-11 Atlantic Ave Richmond Hill NY, 11418","name":"Amoco Gas"},"geometry":{"type":"Point","coordinates":[-73.82835,40.694061]}},{"type":"Feature","properties":{"address":"71-06 Kissena Blvd Flushing NY, 11367","name":"Amys Deli"},"geometry":{"type":"Point","coordinates":[-73.81516,40.729568]}},{"type":"Feature","properties":{"address":"106 7th Ave S New York NY, 10014","name":"Andys Deli"},"geometry":{"type":"Point","coordinates":[-74.002984,40.733274]}},{"type":"Feature","properties":{"address":"142 9th Ave New York NY, 10011","name":"Andys Deli"},"geometry":{"type":"Point","coordinates":[-74.003215,40.743905]}},{"type":"Feature","properties":{"address":"3304 Amboy Rd Staten Island NY, 10306","name":"Angelos Superette"},"geometry":{"type":"Point","coordinates":[-74.135044,40.560218]}},{"type":"Feature","properties":{"address":"849 Annadale Rd Staten Island NY, 10312","name":"Annadale Ro Corp"},"geometry":{"type":"Point","coordinates":[-74.177363,40.541]}},{"type":"Feature","properties":{"address":"827 Annadale Rd Staten Island NY, 10312","name":"Annadale Smoke Shop"},"geometry":{"type":"Point","coordinates":[-74.177424,40.541809]}},{"type":"Feature","properties":{"address":"909 3rd Ave New York NY, 10022","name":"Antique Cafe And Bakery"},"geometry":{"type":"Point","coordinates":[-73.968713,40.758645]}},{"type":"Feature","properties":{"address":"2541 Ocean Ave Brooklyn NY, 11229","name":"Apple Market"},"geometry":{"type":"Point","coordinates":[-73.951455,40.599596]}},{"type":"Feature","properties":{"address":"1225 Amsterdam Ave New York NY, 10027","name":"Apple Tree"},"geometry":{"type":"Point","coordinates":[-73.959041,40.809581]}},{"type":"Feature","properties":{"address":"11 University Pl New York NY, 10003","name":"Ara/nyu Sidestein Mkt^^"},"geometry":{"type":"Point","coordinates":[-73.995159,40.731161]}},{"type":"Feature","properties":{"address":"4295 Amboy Rd Staten Island NY, 10312","name":"Armstrong Deli"},"geometry":{"type":"Point","coordinates":[-74.159152,40.546065]}},{"type":"Feature","properties":{"address":"149 Havemeyer St Brooklyn NY, 11211","name":"Around The Clock"},"geometry":{"type":"Point","coordinates":[-73.957443,40.711746]}},{"type":"Feature","properties":{"address":"180 9th Ave New York NY, 10011","name":"Art Lovers Cafe"},"geometry":{"type":"Point","coordinates":[-74.002179,40.74531]}},{"type":"Feature","properties":{"address":"1510 Cortelyou Rd Brooklyn NY, 11226","name":"Asian Grocery"},"geometry":{"type":"Point","coordinates":[-73.964258,40.641293]}},{"type":"Feature","properties":{"address":"44-07 Greenpoint Ave Sunnyside NY, 11104","name":"Associate Mktplace (dar)"},"geometry":{"type":"Point","coordinates":[-73.920521,40.741542]}},{"type":"Feature","properties":{"address":"43-20 Astoria Blvd Astoria NY, 11103","name":"Astoria Shell Tire Pros"},"geometry":{"type":"Point","coordinates":[-73.907495,40.768293]}},{"type":"Feature","properties":{"address":"4 South St New York NY, 10004","name":"Aunt Butchies"},"geometry":{"type":"Point","coordinates":[-74.011979,40.701611]}},{"type":"Feature","properties":{"address":"1507 Avenue U Brooklyn NY, 11229","name":"Ave U Candy Store"},"geometry":{"type":"Point","coordinates":[-73.956069,40.598872]}},{"type":"Feature","properties":{"address":"115 Avenue A New York NY, 10009","name":"Avenue A Classic Food"},"geometry":{"type":"Point","coordinates":[-73.983363,40.72628]}},{"type":"Feature","properties":{"address":"24 Ave A New York NY, 10009","name":"Avenue A Deli"},"geometry":{"type":"Point","coordinates":[-73.98566,40.723134]}},{"type":"Feature","properties":{"address":"45-01 30th Ave Astoria NY, 11103","name":"Avenue Chemist"},"geometry":{"type":"Point","coordinates":[-73.910886,40.761961]}},{"type":"Feature","properties":{"address":"2950 Avenue U Brooklyn NY, 11229","name":"Avenue U Gourmet Deli & Grocery"},"geometry":{"type":"Point","coordinates":[-73.940432,40.600593]}},{"type":"Feature","properties":{"address":"60 Broadway Brooklyn NY, 11249","name":"Awesome Deli"},"geometry":{"type":"Point","coordinates":[-73.966238,40.710568]}},{"type":"Feature","properties":{"address":"800 Long Beach Blvd Long Beach NY, 11561","name":"B & D Deli"},"geometry":{"type":"Point","coordinates":[-73.656575,40.594471]}},{"type":"Feature","properties":{"address":"510 6th Ave New York NY, 10011","name":"Bagel Buffet"},"geometry":{"type":"Point","coordinates":[-73.997183,40.736873]}},{"type":"Feature","properties":{"address":"700 Arthur Kill Rd Staten Island NY, 10308","name":"Bagel Buster"},"geometry":{"type":"Point","coordinates":[-74.164427,40.5602]}},{"type":"Feature","properties":{"address":"125 Fulton St New York NY, 10038","name":"Bagel Cafe"},"geometry":{"type":"Point","coordinates":[-74.007292,40.710005]}},{"type":"Feature","properties":{"address":"566 Lorimer St Brooklyn NY, 11211","name":"Bagel Smith"},"geometry":{"type":"Point","coordinates":[-73.949347,40.713871]}},{"type":"Feature","properties":{"address":"4300 Amboy Rd Staten Island NY, 10312","name":"Bagels R Us"},"geometry":{"type":"Point","coordinates":[-74.159152,40.546065]}},{"type":"Feature","properties":{"address":"118-22 Atlantic Ave South Richmond Hill NY, 11419","name":"Bagh Deli"},"geometry":{"type":"Point","coordinates":[-73.828276,40.693905]}},{"type":"Feature","properties":{"address":"1601 Westchester Bronx NY, 10472","name":"Barcelona Grocery"},"geometry":{"type":"Point","coordinates":[-73.875519,40.829228]}},{"type":"Feature","properties":{"address":"8511 Bay Parkway Brooklyn NY, 11214","name":"Bay Parkway Grocery"},"geometry":{"type":"Point","coordinates":[-73.993262,40.602471]}},{"type":"Feature","properties":{"address":"1090 W Beech St Long Beach NY, 11561","name":"Beach Bagel"},"geometry":{"type":"Point","coordinates":[-73.701033,40.586015]}},{"type":"Feature","properties":{"address":"157-34 96th St Howard Beach NY, 11414","name":"Beachstone Beverage Inc"},"geometry":{"type":"Point","coordinates":[-73.837643,40.661994]}},{"type":"Feature","properties":{"address":"42-65 Kissena Blvd Flushing NY, 11355","name":"Beca Beverage Inc."},"geometry":{"type":"Point","coordinates":[-73.825233,40.755905]}},{"type":"Feature","properties":{"address":"146 Bedford Ave Brooklyn NY, 11249","name":"Bedford Fruit Market"},"geometry":{"type":"Point","coordinates":[-73.95663,40.718847]}},{"type":"Feature","properties":{"address":"32 Ave B New York NY, 10009","name":"Bens Deli Grocery"},"geometry":{"type":"Point","coordinates":[-73.983076,40.722501]}},{"type":"Feature","properties":{"address":"43-26 Ditmars Blvd Astoria NY, 11105","name":"Berry Fresh Farm"},"geometry":{"type":"Point","coordinates":[-73.903523,40.771058]}},{"type":"Feature","properties":{"address":"30-03 Astoria Blvd Astoria NY, 11102","name":"Best Choice Convenience"},"geometry":{"type":"Point","coordinates":[-73.918732,40.770241]}},{"type":"Feature","properties":{"address":"201 W 242nd St Bronx NY, 10471","name":"Best Deli And Grill"},"geometry":{"type":"Point","coordinates":[-73.898441,40.889499]}},{"type":"Feature","properties":{"address":"671 Bushwick Ave Brooklyn NY, 11211","name":"Best Deli Grocery"},"geometry":{"type":"Point","coordinates":[-73.932312,40.69734]}},{"type":"Feature","properties":{"address":"10-01 Wyckoff Ave Ridgewood NY, 11385","name":"Best Deli"},"geometry":{"type":"Point","coordinates":[-73.904575,40.695873]}},{"type":"Feature","properties":{"address":"196 1st Ave New York NY, 10009","name":"Best Price Deli"},"geometry":{"type":"Point","coordinates":[-73.983642,40.729917]}},{"type":"Feature","properties":{"address":"492 Atlantic Ave East Rockaway NY, 11518","name":"Best Yet Market - East Rockaway"},"geometry":{"type":"Point","coordinates":[-73.665498,40.642105]}},{"type":"Feature","properties":{"address":"19-30 37th St Astoria NY, 11105","name":"Best Yet Market"},"geometry":{"type":"Point","coordinates":[-73.902024,40.778342]}},{"type":"Feature","properties":{"address":"316 Greenwich St New York NY, 10013","name":"Best Yet Of Tribeca"},"geometry":{"type":"Point","coordinates":[-74.01053,40.717964]}},{"type":"Feature","properties":{"address":"2187 8th Ave New York NY, 10026","name":"Best Yet"},"geometry":{"type":"Point","coordinates":[-73.954192,40.806039]}},{"type":"Feature","properties":{"address":"3350 Hillside Ave New Hyde Park NY, 11040","name":"Best Yet"},"geometry":{"type":"Point","coordinates":[-73.659355,40.752984]}},{"type":"Feature","properties":{"address":"79 Greenwich New York NY, 10014","name":"Bethel Gourmet"},"geometry":{"type":"Point","coordinates":[-74.001307,40.736931]}},{"type":"Feature","properties":{"address":"Nyc Dennis T Nyc NY, 11378","name":"Bg Nyc Dennis Samples"},"geometry":{"type":"Point","coordinates":[-73.7607,40.67684]}},{"type":"Feature","properties":{"address":"219 East Broadway New York NY, 10002","name":"Big Apple Food Market"},"geometry":{"type":"Point","coordinates":[-73.987296,40.714298]}},{"type":"Feature","properties":{"address":"671 Grand St Brooklyn NY, 11211","name":"Big Apple"},"geometry":{"type":"Point","coordinates":[-73.945451,40.711493]}},{"type":"Feature","properties":{"address":"244 W 14th St New York NY, 10011","name":"Big Boy Gourmet"},"geometry":{"type":"Point","coordinates":[-74.001812,40.739456]}},{"type":"Feature","properties":{"address":"1018 Morris Park Ave Bronx NY, 10462","name":"Big Deal Supermarket"},"geometry":{"type":"Point","coordinates":[-73.855625,40.848389]}},{"type":"Feature","properties":{"address":"8-70 Cypress Ave Ridgewood NY, 11385","name":"Billys Marketplace"},"geometry":{"type":"Point","coordinates":[-73.905131,40.699483]}},{"type":"Feature","properties":{"address":"502 Hudson St New York NY, 10014","name":"Blackstone Coffee Roasters"},"geometry":{"type":"Point","coordinates":[-74.006342,40.733354]}},{"type":"Feature","properties":{"address":"272 Bleecker St New York NY, 10014","name":"Bleeker Farm"},"geometry":{"type":"Point","coordinates":[-74.003225,40.731626]}},{"type":"Feature","properties":{"address":"149-17 9th Ave Whitestone NY, 11357","name":"Blizzard Beverage"},"geometry":{"type":"Point","coordinates":[-73.816709,40.792845]}},{"type":"Feature","properties":{"address":"715 Lorimer St Brooklyn NY, 11211","name":"Blue Star Deli"},"geometry":{"type":"Point","coordinates":[-73.950093,40.718526]}},{"type":"Feature","properties":{"address":"844 De Kalb Ave Brooklyn NY, 11221","name":"Bravo - Dekalb"},"geometry":{"type":"Point","coordinates":[-73.942151,40.692431]}},{"type":"Feature","properties":{"address":"2285 Grand Concourse Bronx NY, 10453","name":"Bravo Grand Concourse"},"geometry":{"type":"Point","coordinates":[-73.900366,40.857069]}},{"type":"Feature","properties":{"address":"785 Grand St Brooklyn NY, 11211","name":"Bravo Supermarket"},"geometry":{"type":"Point","coordinates":[-73.941708,40.711851]}},{"type":"Feature","properties":{"address":"4879 Broadway New York NY, 10034","name":"Broadway Famous Deli"},"geometry":{"type":"Point","coordinates":[-73.923658,40.866824]}},{"type":"Feature","properties":{"address":"3620 Broadway New York NY, 10031","name":"Broadway Finest"},"geometry":{"type":"Point","coordinates":[-73.948405,40.829046]}},{"type":"Feature","properties":{"address":"584-588 Broadway New York NY, 10012","name":"Broadway Gourmet"},"geometry":{"type":"Point","coordinates":[-73.997294,40.724804]}},{"type":"Feature","properties":{"address":"395 Broadway Brooklyn NY, 11211","name":"Broadway Grab & Go"},"geometry":{"type":"Point","coordinates":[-73.954157,40.707139]}},{"type":"Feature","properties":{"address":"30-07 Broadway Astoria NY, 11106","name":"Broadway Natural"},"geometry":{"type":"Point","coordinates":[-73.925888,40.762209]}},{"type":"Feature","properties":{"address":"799 Broadway Brooklyn NY, 11206","name":"Broadway Organic"},"geometry":{"type":"Point","coordinates":[-73.940239,40.699767]}},{"type":"Feature","properties":{"address":"3578 Broadway New York NY, 10031","name":"Broadway Wholesome Food & Beer"},"geometry":{"type":"Point","coordinates":[-73.949548,40.827497]}},{"type":"Feature","properties":{"address":"76-07 Ditmars Blvd East Elmhurst NY, 11370","name":"Bronx Bull Beverage Llc"},"geometry":{"type":"Point","coordinates":[-73.892837,40.768606]}},{"type":"Feature","properties":{"address":"507 Flatbush Ave Brooklyn NY, 11225","name":"Brooklyn Beer & Soda"},"geometry":{"type":"Point","coordinates":[-73.961516,40.661823]}},{"type":"Feature","properties":{"address":"313 Bedford Ave Brooklyn NY, 11211","name":"Brooklyn Gourmet"},"geometry":{"type":"Point","coordinates":[-73.962159,40.713148]}},{"type":"Feature","properties":{"address":"8102 3rd Ave Brooklyn NY, 11209","name":"Brooklyn Market"},"geometry":{"type":"Point","coordinates":[-74.029663,40.626883]}},{"type":"Feature","properties":{"address":"200 Eastrn Parkway Brooklyn NY, 11238","name":"Brooklyn Museum"},"geometry":{"type":"Point","coordinates":[-73.963388,40.671737]}},{"type":"Feature","properties":{"address":"49 Bogart St Brooklyn NY, 11206","name":"Brooklyn Natural"},"geometry":{"type":"Point","coordinates":[-73.93333,40.705405]}},{"type":"Feature","properties":{"address":"766 Grand St Brooklyn NY, 11211","name":"Brooklyn Standard 2"},"geometry":{"type":"Point","coordinates":[-73.942582,40.711769]}},{"type":"Feature","properties":{"address":"2829 Coney Island Ave Brooklyn NY, 11235","name":"Broolkyn Bagel"},"geometry":{"type":"Point","coordinates":[-73.960317,40.587599]}},{"type":"Feature","properties":{"address":"542 E 14th St New York NY, 10009","name":"Brothers Grocery"},"geometry":{"type":"Point","coordinates":[-73.978181,40.729497]}},{"type":"Feature","properties":{"address":"1172 Amsterdam Ave New York NY, 10027","name":"Brownies Cafe At Columbia"},"geometry":{"type":"Point","coordinates":[-73.960019,40.808249]}},{"type":"Feature","properties":{"address":"285 Bushwick Ave Brooklyn NY, 11206","name":"Bushwick Deli & Grocery"},"geometry":{"type":"Point","coordinates":[-73.939582,40.706095]}},{"type":"Feature","properties":{"address":"413 Bushwick Ave Brooklyn NY, 11206","name":"Bushwick Deli Grill"},"geometry":{"type":"Point","coordinates":[-73.937476,40.703053]}},{"type":"Feature","properties":{"address":"1449 Myrtle Ave Brooklyn NY, 11237","name":"Bushwick Deli"},"geometry":{"type":"Point","coordinates":[-73.917969,40.698848]}},{"type":"Feature","properties":{"address":"3 United Nations Plz New York NY, 10017","name":"Butter Beans Kitchen @ Unicef"},"geometry":{"type":"Point","coordinates":[-73.968955,40.749377]}},{"type":"Feature","properties":{"address":"19-30 80th St East Elmhurst NY, 11370","name":"Cabanilla Corp"},"geometry":{"type":"Point","coordinates":[-73.89068,40.772349]}},{"type":"Feature","properties":{"address":"352 9th Ave New York NY, 10001","name":"Cafe Bravo"},"geometry":{"type":"Point","coordinates":[-73.998072,40.750972]}},{"type":"Feature","properties":{"address":"2 Park Ave New York NY, 10016","name":"Cafe Europa - 2 Park Ave"},"geometry":{"type":"Point","coordinates":[-73.982198,40.746073]}},{"type":"Feature","properties":{"address":"686 3rd Ave New York NY, 10017","name":"Cafe Hestia"},"geometry":{"type":"Point","coordinates":[-73.973835,40.751635]}},{"type":"Feature","properties":{"address":"1619 Amsterdam Ave New York NY, 10031","name":"Cafe One"},"geometry":{"type":"Point","coordinates":[-73.949783,40.822257]}},{"type":"Feature","properties":{"address":"208 Avenue A New York NY, 10009","name":"Caffe Benne"},"geometry":{"type":"Point","coordinates":[-73.980949,40.729605]}},{"type":"Feature","properties":{"address":"216 Ave B New York NY, 10009","name":"Campo Deli Grocery"},"geometry":{"type":"Point","coordinates":[-73.978465,40.728842]}},{"type":"Feature","properties":{"address":"1606 Amsterdam Ave New York NY, 10031","name":"Campus Deli"},"geometry":{"type":"Point","coordinates":[-73.950304,40.821545]}},{"type":"Feature","properties":{"address":"385 Canal St New York NY, 10013","name":"Canal Iconic Magazines"},"geometry":{"type":"Point","coordinates":[-74.004873,40.721536]}},{"type":"Feature","properties":{"address":"52 Canal St New York NY, 10002","name":"Canal Street Newstand"},"geometry":{"type":"Point","coordinates":[-73.991881,40.714891]}},{"type":"Feature","properties":{"address":"3259 Richmond Ave Staten Island NY, 10312","name":"Cardsmart"},"geometry":{"type":"Point","coordinates":[-74.169548,40.559458]}},{"type":"Feature","properties":{"address":"1818 Caton Ave Brooklyn NY, 11226","name":"Caton Ave Deli N Luchenoette"},"geometry":{"type":"Point","coordinates":[-73.962851,40.651599]}},{"type":"Feature","properties":{"address":"1416 Cortelyou Rd Brooklyn NY, 11226","name":"Catskill Bagel"},"geometry":{"type":"Point","coordinates":[-73.9648,40.641046]}},{"type":"Feature","properties":{"address":"87 Central Ave Brooklyn NY, 11206","name":"Central Organics"},"geometry":{"type":"Point","coordinates":[-73.929659,40.700645]}},{"type":"Feature","properties":{"address":"177 Pondfield Rd Bronxville NY, 10708","name":"Chartwell - Bronxville School District"},"geometry":{"type":"Point","coordinates":[-73.831968,40.937584]}},{"type":"Feature","properties":{"address":"301 10th Ave New York NY, 10001","name":"Chelsea Deli And Pizza"},"geometry":{"type":"Point","coordinates":[-74.002188,40.750451]}},{"type":"Feature","properties":{"address":"300 8th Ave New York NY, 10001","name":"Chelsea Fine Food"},"geometry":{"type":"Point","coordinates":[-73.997479,40.746652]}},{"type":"Feature","properties":{"address":"366 W 23rd St New York NY, 10011","name":"Chelsea Hypermarket"},"geometry":{"type":"Point","coordinates":[-74.001043,40.746381]}},{"type":"Feature","properties":{"address":"130 10th Ave New York NY, 10011","name":"Chelsea Square Market"},"geometry":{"type":"Point","coordinates":[-74.00631,40.744766]}},{"type":"Feature","properties":{"address":"4051 Broadway New York NY, 10032","name":"Cherry Tree"},"geometry":{"type":"Point","coordinates":[-73.939205,40.843087]}},{"type":"Feature","properties":{"address":"2 W 46th St New York NY, 10036","name":"Chick Pea"},"geometry":{"type":"Point","coordinates":[-73.979639,40.756289]}},{"type":"Feature","properties":{"address":"45 E 45th St New York NY, 10017","name":"Chick Pea"},"geometry":{"type":"Point","coordinates":[-73.97741,40.754521]}},{"type":"Feature","properties":{"address":"1724 Church Ave Brooklyn NY, 11218","name":"Church Ave Grill"},"geometry":{"type":"Point","coordinates":[-73.963334,40.649342]}},{"type":"Feature","properties":{"address":"111 Church Ave Brooklyn NY, 11218","name":"Church Avenue Food"},"geometry":{"type":"Point","coordinates":[-73.979029,40.642973]}},{"type":"Feature","properties":{"address":"1507 Gravesend Neck Rd Brooklyn NY, 11229","name":"Circle 7 Deli"},"geometry":{"type":"Point","coordinates":[-73.955317,40.594908]}},{"type":"Feature","properties":{"address":"75-32 Parsons Blvd Fresh Meadows NY, 11366","name":"Circle Beverage"},"geometry":{"type":"Point","coordinates":[-73.810698,40.725534]}},{"type":"Feature","properties":{"address":"203 E Park Ave Long Beach NY, 11561","name":"Circle K"},"geometry":{"type":"Point","coordinates":[-73.658059,40.588702]}},{"type":"Feature","properties":{"address":"36-20 Queens Blvd Sunnyside NY, 11101","name":"Citgo - Queens Blvd"},"geometry":{"type":"Point","coordinates":[-73.925708,40.743814]}},{"type":"Feature","properties":{"address":"600 Pelham Pkwy S Bronx NY, 10462","name":"Citgo"},"geometry":{"type":"Point","coordinates":[-73.868808,40.85661]}},{"type":"Feature","properties":{"address":"70 Pine St New York NY, 10005","name":"City Acres Market"},"geometry":{"type":"Point","coordinates":[-74.00774,40.706208]}},{"type":"Feature","properties":{"address":"338 8th Ave New York NY, 10001","name":"City Gourmet Market"},"geometry":{"type":"Point","coordinates":[-73.996779,40.747628]}},{"type":"Feature","properties":{"address":"535 9th Ave New York NY, 10018","name":"City Gourmet"},"geometry":{"type":"Point","coordinates":[-73.993707,40.756927]}},{"type":"Feature","properties":{"address":"1859 Utica Ave Brooklyn NY, 11234","name":"Classic Service Car Wash"},"geometry":{"type":"Point","coordinates":[-73.927731,40.62687]}},{"type":"Feature","properties":{"address":"1115 Manhattan Deli Brooklyn NY, 11222","name":"Clay Deli"},"geometry":{"type":"Point","coordinates":[-73.95563,40.73664]}},{"type":"Feature","properties":{"address":"Penn Station New York NY, 10001","name":"Coco Moka"},"geometry":{"type":"Point","coordinates":[-73.99858,40.74784]}},{"type":"Feature","properties":{"address":"30 Newkirk Plaza Brooklyn NY, 11226","name":"Coffee Z"},"geometry":{"type":"Point","coordinates":[-73.962819,40.635578]}},{"type":"Feature","properties":{"address":"857 E 241st St Bronx NY, 10470","name":"Community Deli"},"geometry":{"type":"Point","coordinates":[-73.847124,40.901842]}},{"type":"Feature","properties":{"address":"2 W Loop Rd New York NY, 10044","name":"Constellation Culinary - Cornell Tech"},"geometry":{"type":"Point","coordinates":[-73.956472,40.755872]}},{"type":"Feature","properties":{"address":"22-44 31st St Astoria NY, 11105","name":"Convenience News"},"geometry":{"type":"Point","coordinates":[-73.911871,40.775185]}},{"type":"Feature","properties":{"address":"1924 Kings Highway Brooklyn NY, 11229","name":"Convenience Store"},"geometry":{"type":"Point","coordinates":[-73.954048,40.610498]}},{"type":"Feature","properties":{"address":"140 Orchard St New York NY, 10002","name":"Corner Grocers"},"geometry":{"type":"Point","coordinates":[-73.989198,40.720125]}},{"type":"Feature","properties":{"address":"565 Grand St New York NY, 10002","name":"Cozy Food Corp"},"geometry":{"type":"Point","coordinates":[-73.979816,40.713931]}},{"type":"Feature","properties":{"address":"27-02 Crescent St Astoria NY, 11102","name":"Crescent Gourmet Deli"},"geometry":{"type":"Point","coordinates":[-73.923986,40.769981]}},{"type":"Feature","properties":{"address":"95 Vredenburgh Ave Yonkers NY, 10704","name":"Cross County Citco/car Wash"},"geometry":{"type":"Point","coordinates":[-73.855445,40.923637]}},{"type":"Feature","properties":{"address":"840 E New York Ave Brooklyn NY, 11203","name":"Crown Heights International Food"},"geometry":{"type":"Point","coordinates":[-73.93488,40.662552]}},{"type":"Feature","properties":{"address":"289 Hudson St New York NY, 10013","name":"D&d Deli"},"geometry":{"type":"Point","coordinates":[-74.007567,40.725682]}},{"type":"Feature","properties":{"address":"10 Marion Pl Yonkers NY, 10705","name":"Daisy Beverage"},"geometry":{"type":"Point","coordinates":[-73.888377,40.911792]}},{"type":"Feature","properties":{"address":"1944 1st Ave New York NY, 10029","name":"Daves Gourmet"},"geometry":{"type":"Point","coordinates":[-73.942889,40.785751]}},{"type":"Feature","properties":{"address":"302 Mcguinness Brooklyn NY, 11222","name":"Davids Auto Repair"},"geometry":{"type":"Point","coordinates":[-73.951956,40.73273]}},{"type":"Feature","properties":{"address":"73 Bushwick Ave Brooklyn NY, 11211","name":"Day & Night"},"geometry":{"type":"Point","coordinates":[-73.941065,40.712721]}},{"type":"Feature","properties":{"address":"2141 Palmer Ave Larchmont NY, 10538","name":"De Cicco - Larchmont"},"geometry":{"type":"Point","coordinates":[-73.764626,40.928256]}},{"type":"Feature","properties":{"address":"43 Fifth Ave Pelham NY, 10803","name":"De Cicco Food Market"},"geometry":{"type":"Point","coordinates":[-73.809332,40.911988]}},{"type":"Feature","properties":{"address":"310 W 40th St New York NY, 10018","name":"Dear Irving At Aliz Hotel"},"geometry":{"type":"Point","coordinates":[-73.991603,40.756312]}},{"type":"Feature","properties":{"address":"376 Hewes St Brooklyn NY, 11211","name":"Deli & Grocery 362"},"geometry":{"type":"Point","coordinates":[-73.95144,40.708251]}},{"type":"Feature","properties":{"address":"141 4th Ave New York NY, 10003","name":"Deli 141"},"geometry":{"type":"Point","coordinates":[-73.989851,40.733547]}},{"type":"Feature","properties":{"address":"79 E 18th St Brooklyn NY, 11226","name":"Deli Food Center"},"geometry":{"type":"Point","coordinates":[-73.963044,40.649331]}},{"type":"Feature","properties":{"address":"109 Bronx River Rd Yonkers NY, 10704","name":"Delta Gas Mart"},"geometry":{"type":"Point","coordinates":[-73.858673,40.904826]}},{"type":"Feature","properties":{"address":"53 Dexter Ave Staten Island NY, 10309","name":"Di Falco Beverage"},"geometry":{"type":"Point","coordinates":[-74.21572,40.540207]}},{"type":"Feature","properties":{"address":"46-14 Ditmars Blvd Astoria NY, 11105","name":"Ditmars Supermarket"},"geometry":{"type":"Point","coordinates":[-73.901988,40.769975]}},{"type":"Feature","properties":{"address":"131 Berry St Brooklyn NY, 11249","name":"Diviera Drive"},"geometry":{"type":"Point","coordinates":[-73.959191,40.718471]}},{"type":"Feature","properties":{"address":"1004 Flushing Ave Brooklyn NY, 11237","name":"Dominguez Grocery"},"geometry":{"type":"Point","coordinates":[-73.930845,40.703899]}},{"type":"Feature","properties":{"address":"110 Forsyth St New York NY, 10002","name":"Don Juan Deli Grocery"},"geometry":{"type":"Point","coordinates":[-73.992515,40.719025]}},{"type":"Feature","properties":{"address":"1701 Church Ave Brooklyn NY, 11226","name":"Downtown Natural Market"},"geometry":{"type":"Point","coordinates":[-73.963715,40.649193]}},{"type":"Feature","properties":{"address":"325 Yonkers Ave Yonkers NY, 10701","name":"Dunwoodie Deli & Dairy"},"geometry":{"type":"Point","coordinates":[-73.872558,40.933259]}},{"type":"Feature","properties":{"address":"201 Dyckman St New York NY, 10040","name":"Dyckman Deli"},"geometry":{"type":"Point","coordinates":[-73.926774,40.864755]}},{"type":"Feature","properties":{"address":"1000 Ocean Pkwy Brooklyn NY, 11230","name":"E & P Beverage Corp"},"geometry":{"type":"Point","coordinates":[-73.970873,40.624824]}},{"type":"Feature","properties":{"address":"159 Essex St New York NY, 10002","name":"E & S Wholesale"},"geometry":{"type":"Point","coordinates":[-73.98689,40.721116]}},{"type":"Feature","properties":{"address":"618 8th Ave New York NY, 10018","name":"E Smoke And Convenience"},"geometry":{"type":"Point","coordinates":[-73.990824,40.755823]}},{"type":"Feature","properties":{"address":"229 Ave B New York NY, 10009","name":"E Village Fruit"},"geometry":{"type":"Point","coordinates":[-73.978174,40.729249]}},{"type":"Feature","properties":{"address":"52 Rivington St New York NY, 10002","name":"E2 Mini Mart"},"geometry":{"type":"Point","coordinates":[-73.990746,40.720802]}},{"type":"Feature","properties":{"address":"91 Norman Ave Brooklyn NY, 11222","name":"Early Bird Smoke Shop"},"geometry":{"type":"Point","coordinates":[-73.951557,40.725495]}},{"type":"Feature","properties":{"address":"57 E 18th St Brooklyn NY, 11226","name":"East 18th Street Deli"},"geometry":{"type":"Point","coordinates":[-73.963173,40.649967]}},{"type":"Feature","properties":{"address":"69 2nd Ave New York NY, 10003","name":"East Village Farms"},"geometry":{"type":"Point","coordinates":[-73.989355,40.726287]}},{"type":"Feature","properties":{"address":"50 Ave B New York NY, 10009","name":"East Village Finest Deli"},"geometry":{"type":"Point","coordinates":[-73.982605,40.723152]}},{"type":"Feature","properties":{"address":"274 S 4th Ave Mount Vernon NY, 10550","name":"Edwys Grocery"},"geometry":{"type":"Point","coordinates":[-73.834336,40.90444]}},{"type":"Feature","properties":{"address":"134 8th Ave New York NY, 10011","name":"Eighth Avenue Gourmet Deli"},"geometry":{"type":"Point","coordinates":[-74.001269,40.74146]}},{"type":"Feature","properties":{"address":"969 Manhattan Ave Brooklyn NY, 11222","name":"El Clasico Candy Corp"},"geometry":{"type":"Point","coordinates":[-73.954594,40.732199]}},{"type":"Feature","properties":{"address":"1 Convent Ave New York NY, 10027","name":"Eleganza Gourmet"},"geometry":{"type":"Point","coordinates":[-73.953134,40.812896]}},{"type":"Feature","properties":{"address":"17 Battery Place New York NY, 10004","name":"Elma Farms Market (zeytuna)"},"geometry":{"type":"Point","coordinates":[-74.015802,40.704944]}},{"type":"Feature","properties":{"address":"496 Arthur Kill Rd Staten Island NY, 10308","name":"Elverton Bagels"},"geometry":{"type":"Point","coordinates":[-74.157061,40.562654]}},{"type":"Feature","properties":{"address":"6 E 43rd St New York NY, 10017","name":"Emigrant Savings Bank"},"geometry":{"type":"Point","coordinates":[-73.979686,40.753846]}},{"type":"Feature","properties":{"address":"1729 Emmons Ave Brooklyn NY, 11235","name":"Emmons Deli"},"geometry":{"type":"Point","coordinates":[-73.950673,40.583466]}},{"type":"Feature","properties":{"address":"245 9th Ave New York NY, 10001","name":"Empire Deli"},"geometry":{"type":"Point","coordinates":[-74.000472,40.747646]}},{"type":"Feature","properties":{"address":"42-16 30th Ave Astoria NY, 11103","name":"Empire Deli"},"geometry":{"type":"Point","coordinates":[-73.912811,40.762866]}},{"type":"Feature","properties":{"address":"45 University Place New York NY, 10003","name":"Epicurean Market"},"geometry":{"type":"Point","coordinates":[-73.9941,40.732369]}},{"type":"Feature","properties":{"address":"2461 Adam Clayton Powell Jr Blvd New York NY, 10030","name":"Esayi Pizza & Deli"},"geometry":{"type":"Point","coordinates":[-73.939831,40.820437]}},{"type":"Feature","properties":{"address":"160 Varick St New York NY, 10013","name":"Essen"},"geometry":{"type":"Point","coordinates":[-74.005604,40.726772]}},{"type":"Feature","properties":{"address":"476 6th Ave New York NY, 10011","name":"Evergreen"},"geometry":{"type":"Point","coordinates":[-73.997944,40.735843]}},{"type":"Feature","properties":{"address":"521 Lenox Ave New York NY, 10037","name":"Exquisite Grill Deli"},"geometry":{"type":"Point","coordinates":[-73.940352,40.814914]}},{"type":"Feature","properties":{"address":"340 Rockaway Turnpike Cedarhurst NY, 11516","name":"Exxon - Bolla Market"},"geometry":{"type":"Point","coordinates":[-73.735521,40.624679]}},{"type":"Feature","properties":{"address":"172 Havemeyer St Brooklyn NY, 11211","name":"F & B Organic"},"geometry":{"type":"Point","coordinates":[-73.957889,40.711029]}},{"type":"Feature","properties":{"address":"41 Saint Nicholas Ter New York NY, 10027","name":"Family Community Deli & Luncheonette Cor"},"geometry":{"type":"Point","coordinates":[-73.951177,40.813776]}},{"type":"Feature","properties":{"address":"107-27 Atlantic Ave Richmond Hill NY, 11418","name":"Family Grocery And Deli"},"geometry":{"type":"Point","coordinates":[-73.837686,40.691404]}},{"type":"Feature","properties":{"address":"723 Grand St Brooklyn NY, 11211","name":"Farmers Deli"},"geometry":{"type":"Point","coordinates":[-73.94404,40.711632]}},{"type":"Feature","properties":{"address":"369 W 9th St Brooklyn NY, 11204","name":"Farmers Market"},"geometry":{"type":"Point","coordinates":[-73.983198,40.611142]}},{"type":"Feature","properties":{"address":"64 W 9th St New York NY, 10011","name":"Farmers Market"},"geometry":{"type":"Point","coordinates":[-73.998706,40.734063]}},{"type":"Feature","properties":{"address":"104-19 Queens Blvd Forest Hills NY, 11375","name":"Fast Break Inc."},"geometry":{"type":"Point","coordinates":[-73.848546,40.723739]}},{"type":"Feature","properties":{"address":"460 W 34th St New York NY, 10001","name":"Fast Break News"},"geometry":{"type":"Point","coordinates":[-73.998728,40.754408]}},{"type":"Feature","properties":{"address":"1136 Ogden Ave Bronx NY, 10452","name":"Fine & Fare - Ogden Ave"},"geometry":{"type":"Point","coordinates":[-73.927729,40.835866]}},{"type":"Feature","properties":{"address":"171 Bleecker St New York NY, 10012","name":"Finest Deli"},"geometry":{"type":"Point","coordinates":[-74.000542,40.728856]}},{"type":"Feature","properties":{"address":"162 1st Ave New York NY, 10009","name":"Fitness Gourmet"},"geometry":{"type":"Point","coordinates":[-73.984523,40.728675]}},{"type":"Feature","properties":{"address":"284 Burnside Ave Lawrence NY, 11559","name":"Five Star Bagel"},"geometry":{"type":"Point","coordinates":[-73.736631,40.623789]}},{"type":"Feature","properties":{"address":"1211 6th Ave New York NY, 10036","name":"Flik - Ropes -n-gray"},"geometry":{"type":"Point","coordinates":[-73.98156,40.758332]}},{"type":"Feature","properties":{"address":"1221 6th Ave New York NY, 10020","name":"Flik - White And Case"},"geometry":{"type":"Point","coordinates":[-73.981102,40.758957]}},{"type":"Feature","properties":{"address":"7 World Trade Center New York NY, 10007","name":"Flik - Wilmerhale New York"},"geometry":{"type":"Point","coordinates":[-74.01256,40.71312]}},{"type":"Feature","properties":{"address":"601 Lexington Ave New York NY, 10022","name":"Flik- Kirkland & Ellis"},"geometry":{"type":"Point","coordinates":[-73.97065,40.758851]}},{"type":"Feature","properties":{"address":"4-85 47th Rd Long Island City NY, 11101","name":"Food Cellar & Co."},"geometry":{"type":"Point","coordinates":[-73.955936,40.7453]}},{"type":"Feature","properties":{"address":"43-18 Crescent St Long Island City NY, 11101","name":"Food Cellar Market"},"geometry":{"type":"Point","coordinates":[-73.942841,40.748122]}},{"type":"Feature","properties":{"address":"1525 86th St Brooklyn NY, 11228","name":"Food Dynasty"},"geometry":{"type":"Point","coordinates":[-74.008321,40.610688]}},{"type":"Feature","properties":{"address":"50 Van Cortlandt Ave W Bronx NY, 10463","name":"Food Dynasty"},"geometry":{"type":"Point","coordinates":[-73.892904,40.883104]}},{"type":"Feature","properties":{"address":"7414 3rd Ave Brooklyn NY, 11209","name":"Food Dynasty"},"geometry":{"type":"Point","coordinates":[-74.027709,40.631655]}},{"type":"Feature","properties":{"address":"433 W 34th St New York NY, 10001","name":"Food Fair"},"geometry":{"type":"Point","coordinates":[-73.99791,40.754068]}},{"type":"Feature","properties":{"address":"630 W 52nd St New York NY, 10019","name":"Food Kick"},"geometry":{"type":"Point","coordinates":[-73.995397,40.76784]}},{"type":"Feature","properties":{"address":"40 Bogart St Brooklyn NY, 11206","name":"Food Story Natural Market"},"geometry":{"type":"Point","coordinates":[-73.933206,40.704971]}},{"type":"Feature","properties":{"address":"23-38 31st St Astoria NY, 11105","name":"Food Story Natural"},"geometry":{"type":"Point","coordinates":[-73.913631,40.773749]}},{"type":"Feature","properties":{"address":"1552 Myrtle Ave Brooklyn NY, 11237","name":"Food Story"},"geometry":{"type":"Point","coordinates":[-73.911619,40.69949]}},{"type":"Feature","properties":{"address":"111 2nd Ave New York NY, 10003","name":"Foodmart"},"geometry":{"type":"Point","coordinates":[-73.988346,40.727648]}},{"type":"Feature","properties":{"address":"350 Forest Ave Staten Island NY, 10301","name":"Forest Superette"},"geometry":{"type":"Point","coordinates":[-74.101055,40.631136]}},{"type":"Feature","properties":{"address":"98 Wyckoff Ave Brooklyn NY, 11237","name":"Four Season Grill"},"geometry":{"type":"Point","coordinates":[-73.919076,40.704205]}},{"type":"Feature","properties":{"address":"210 Franklin St Brooklyn NY, 11222","name":"Franklin Corner Cafe"},"geometry":{"type":"Point","coordinates":[-73.958071,40.732761]}},{"type":"Feature","properties":{"address":"807 W 187th St New York NY, 10033","name":"Franks Market Place"},"geometry":{"type":"Point","coordinates":[-73.937782,40.855402]}},{"type":"Feature","properties":{"address":"62-09 Roosevelt Ave Woodside NY, 11377","name":"Fresh & Save - Woodside"},"geometry":{"type":"Point","coordinates":[-73.902031,40.74573]}},{"type":"Feature","properties":{"address":"630 Flushing Ave Brooklyn NY, 11206","name":"Fresh Direct V# 12494"},"geometry":{"type":"Point","coordinates":[-73.948214,40.699997]}},{"type":"Feature","properties":{"address":"180 Montague St Brooklyn NY, 11201","name":"Fresh Start Market Place"},"geometry":{"type":"Point","coordinates":[-73.991828,40.69412]}},{"type":"Feature","properties":{"address":"97 Stanton St New York NY, 10002","name":"Freshco Grocery And Deli"},"geometry":{"type":"Point","coordinates":[-73.988123,40.721339]}},{"type":"Feature","properties":{"address":"148 W Park Ave Long Beach NY, 11561","name":"Fruit Bowl"},"geometry":{"type":"Point","coordinates":[-73.668504,40.588343]}},{"type":"Feature","properties":{"address":"30-93 38th St Astoria NY, 11103","name":"Fusion Juice Bar"},"geometry":{"type":"Point","coordinates":[-73.91783,40.761792]}},{"type":"Feature","properties":{"address":"3778 Broadway New York NY, 10032","name":"Galaxy Gourmet Deli"},"geometry":{"type":"Point","coordinates":[-73.944853,40.833942]}},{"type":"Feature","properties":{"address":"185 Starr St Brooklyn NY, 11237","name":"Garden Deli"},"geometry":{"type":"Point","coordinates":[-73.923947,40.704301]}},{"type":"Feature","properties":{"address":"1 National Blvd Long Beach NY, 11561","name":"Gentle Brew"},"geometry":{"type":"Point","coordinates":[-73.666962,40.585681]}},{"type":"Feature","properties":{"address":"49-25 Van Dam St Long Island City NY, 11101","name":"Getty"},"geometry":{"type":"Point","coordinates":[-73.934745,40.738861]}},{"type":"Feature","properties":{"address":"157 Christopher St New York NY, 10014","name":"Gourmet 157"},"geometry":{"type":"Point","coordinates":[-74.008168,40.732745]}},{"type":"Feature","properties":{"address":"1133 Manhattan Ave Brooklyn NY, 11222","name":"Gourmet A Fare"},"geometry":{"type":"Point","coordinates":[-73.955369,40.736939]}},{"type":"Feature","properties":{"address":"114 Wyckoff Ave Brooklyn NY, 11237","name":"Gourmet Deli 114"},"geometry":{"type":"Point","coordinates":[-73.918349,40.703753]}},{"type":"Feature","properties":{"address":"6318 18th Ave Brooklyn NY, 11204","name":"Gourmet Deli Grill"},"geometry":{"type":"Point","coordinates":[-73.989387,40.619914]}},{"type":"Feature","properties":{"address":"101 Nassau Ave Brooklyn NY, 11222","name":"Gourmet Deli"},"geometry":{"type":"Point","coordinates":[-73.950064,40.724015]}},{"type":"Feature","properties":{"address":"22-17 Astoria Blvd Astoria NY, 11102","name":"Gourmet Deli"},"geometry":{"type":"Point","coordinates":[-73.924547,40.771808]}},{"type":"Feature","properties":{"address":"243 Broome St New York NY, 10002","name":"Gourmet Deli"},"geometry":{"type":"Point","coordinates":[-73.989595,40.717929]}},{"type":"Feature","properties":{"address":"1299 2nd Ave New York NY, 10065","name":"Graces Market Place"},"geometry":{"type":"Point","coordinates":[-73.96,40.766549]}},{"type":"Feature","properties":{"address":"359 Graham Ave Brooklyn NY, 11211","name":"Graham Garden"},"geometry":{"type":"Point","coordinates":[-73.944517,40.715325]}},{"type":"Feature","properties":{"address":"118 Gramatan Ave Mount Vernon NY, 10550","name":"Gramaton Deli"},"geometry":{"type":"Point","coordinates":[-73.837357,40.914558]}},{"type":"Feature","properties":{"address":"805 Grand St Brooklyn NY, 11211","name":"Grand Freedom Market"},"geometry":{"type":"Point","coordinates":[-73.941134,40.711905]}},{"type":"Feature","properties":{"address":"619 Grand St Brooklyn NY, 11211","name":"Grand Gourmet"},"geometry":{"type":"Point","coordinates":[-73.947405,40.711308]}},{"type":"Feature","properties":{"address":"304 Hudson St New York NY, 10013","name":"Great Performances"},"geometry":{"type":"Point","coordinates":[-74.007467,40.726274]}},{"type":"Feature","properties":{"address":"375 Graham Ave Brooklyn NY, 11211","name":"Green Apple"},"geometry":{"type":"Point","coordinates":[-73.944602,40.715832]}},{"type":"Feature","properties":{"address":"375 Graham Brooklyn NY, 11211","name":"Green Apple"},"geometry":{"type":"Point","coordinates":[-73.944602,40.715832]}},{"type":"Feature","properties":{"address":"387 8th Ave New York NY, 10001","name":"Green Blend"},"geometry":{"type":"Point","coordinates":[-73.99562,40.749204]}},{"type":"Feature","properties":{"address":"1520 Avenue M Brooklyn NY, 11230","name":"Green Forest Market"},"geometry":{"type":"Point","coordinates":[-73.959246,40.618094]}},{"type":"Feature","properties":{"address":"626 Manhattan Ave Brooklyn NY, 11222","name":"Green Garden Deli"},"geometry":{"type":"Point","coordinates":[-73.950732,40.723668]}},{"type":"Feature","properties":{"address":"95 Delancey St New York NY, 10002","name":"Green Star Food"},"geometry":{"type":"Point","coordinates":[-73.9893,40.718783]}},{"type":"Feature","properties":{"address":"138-54 84th Drive Briarwood NY, 11435","name":"Green Valley Market"},"geometry":{"type":"Point","coordinates":[-73.817925,40.709296]}},{"type":"Feature","properties":{"address":"31-10 30th Avenu Astoria NY, 11102","name":"Greenbay Organic Foods"},"geometry":{"type":"Point","coordinates":[-73.920878,40.766657]}},{"type":"Feature","properties":{"address":"903 Manhattan Ave Brooklyn NY, 11222","name":"Greenpoint Deli Market"},"geometry":{"type":"Point","coordinates":[-73.954285,40.73034]}},{"type":"Feature","properties":{"address":"1 W 13th St New York NY, 10011","name":"Grenwich Social"},"geometry":{"type":"Point","coordinates":[-73.994118,40.735315]}},{"type":"Feature","properties":{"address":"188 Utica Ave Brooklyn NY, 11213","name":"Grocery Plus"},"geometry":{"type":"Point","coordinates":[-73.930774,40.672497]}},{"type":"Feature","properties":{"address":"249 Avenue U Brooklyn NY, 11223","name":"H & H Deli"},"geometry":{"type":"Point","coordinates":[-73.974819,40.596811]}},{"type":"Feature","properties":{"address":"471 6th Ave New York NY, 10011","name":"H & H Deli"},"geometry":{"type":"Point","coordinates":[-73.998096,40.73563]}},{"type":"Feature","properties":{"address":"450 9th Ave New York NY, 10018","name":"H - Yard Gourmet Deli"},"geometry":{"type":"Point","coordinates":[-73.995615,40.754348]}},{"type":"Feature","properties":{"address":"61 1st Ave New York NY, 10003","name":"H Village Farm"},"geometry":{"type":"Point","coordinates":[-73.987125,40.725107]}},{"type":"Feature","properties":{"address":"195 9th Ave New York NY, 10011","name":"Haha Fresh"},"geometry":{"type":"Point","coordinates":[-74.001803,40.745819]}},{"type":"Feature","properties":{"address":"245 Malcom X Blvd Brooklyn NY, 11233","name":"Halsey"},"geometry":{"type":"Point","coordinates":[-73.92934,40.684339]}},{"type":"Feature","properties":{"address":"534 Metropolitan Ave Brooklyn NY, 11211","name":"Hana Deli"},"geometry":{"type":"Point","coordinates":[-73.950994,40.71406]}},{"type":"Feature","properties":{"address":"24 Wyckoff Ave Brooklyn NY, 11237","name":"Hana Natural & Health"},"geometry":{"type":"Point","coordinates":[-73.922457,40.706317]}},{"type":"Feature","properties":{"address":"156-40 Northern Blvd Flushing NY, 11354","name":"Hanahreum"},"geometry":{"type":"Point","coordinates":[-73.808868,40.763945]}},{"type":"Feature","properties":{"address":"1603 Avenue U Brooklyn NY, 11229","name":"Hanan Deli & Grocery"},"geometry":{"type":"Point","coordinates":[-73.955251,40.598962]}},{"type":"Feature","properties":{"address":"930 Hillside Ave New Hyde Park NY, 11040","name":"Hand Rolled Bagels"},"geometry":{"type":"Point","coordinates":[-73.692725,40.743689]}},{"type":"Feature","properties":{"address":"645 Broadway New York NY, 10012","name":"Hans Deli"},"geometry":{"type":"Point","coordinates":[-73.995749,40.726688]}},{"type":"Feature","properties":{"address":"1200 White Plains Rd Bronx NY, 10472","name":"Happy Deli"},"geometry":{"type":"Point","coordinates":[-73.861656,40.830576]}},{"type":"Feature","properties":{"address":"75 Fleetwood Ave Mount Vernon NY, 10552","name":"Harvest Market"},"geometry":{"type":"Point","coordinates":[-73.838067,40.924924]}},{"type":"Feature","properties":{"address":"48 3rd Ave New York NY, 10003","name":"Health Green Deli"},"geometry":{"type":"Point","coordinates":[-73.988974,40.730835]}},{"type":"Feature","properties":{"address":"1776 Madison Ave New York NY, 10035","name":"Healthy Choice"},"geometry":{"type":"Point","coordinates":[-73.944485,40.800463]}},{"type":"Feature","properties":{"address":"217 1st Ave New York NY, 10003","name":"Healthy Market Place"},"geometry":{"type":"Point","coordinates":[-73.983168,40.730572]}},{"type":"Feature","properties":{"address":"77 3rd Ave New York NY, 10003","name":"Heavenly Market & Deli"},"geometry":{"type":"Point","coordinates":[-73.988335,40.731713]}},{"type":"Feature","properties":{"address":"44 E 8th St New York NY, 10003","name":"Heavenly Market"},"geometry":{"type":"Point","coordinates":[-73.993654,40.731118]}},{"type":"Feature","properties":{"address":"300 Mill Rd Hewlett NY, 11557","name":"Hewlett Food Mart"},"geometry":{"type":"Point","coordinates":[-73.702467,40.639214]}},{"type":"Feature","properties":{"address":"1055 Flushing Ave Brooklyn NY, 11215","name":"Hi Mango Market"},"geometry":{"type":"Point","coordinates":[-73.930029,40.704219]}},{"type":"Feature","properties":{"address":"341 Knickerbocker Ave Brooklyn NY, 11237","name":"Hi Mango Natural Market"},"geometry":{"type":"Point","coordinates":[-73.922157,40.700968]}},{"type":"Feature","properties":{"address":"63 W 35th St New York NY, 10001","name":"Hilton Garden Inn / West 35th Street"},"geometry":{"type":"Point","coordinates":[-73.986718,40.750213]}},{"type":"Feature","properties":{"address":"122 Saint Marks Place New York NY, 10009","name":"Hollyland Market"},"geometry":{"type":"Point","coordinates":[-73.983802,40.726961]}},{"type":"Feature","properties":{"address":"26-20 Francis Lewis Blvd Flushing NY, 11358","name":"Holy Cross High School"},"geometry":{"type":"Point","coordinates":[-73.795433,40.772785]}},{"type":"Feature","properties":{"address":"127 Church Ave Brooklyn NY, 11218","name":"Hot Bagels"},"geometry":{"type":"Point","coordinates":[-73.978458,40.643213]}},{"type":"Feature","properties":{"address":"1307 Arthur Kill Rd Staten Island NY, 10312","name":"Hot Bagels"},"geometry":{"type":"Point","coordinates":[-74.183842,40.565298]}},{"type":"Feature","properties":{"address":"1567 Broadway New York NY, 10036","name":"Hotel W - 1567 Broadway"},"geometry":{"type":"Point","coordinates":[-73.985116,40.759285]}},{"type":"Feature","properties":{"address":"54 Howard Ave Brooklyn NY, 11221","name":"Howard Market"},"geometry":{"type":"Point","coordinates":[-73.920771,40.686819]}},{"type":"Feature","properties":{"address":"333 Hudson St New York NY, 10013","name":"Hudson Food Court"},"geometry":{"type":"Point","coordinates":[-74.007342,40.727055]}},{"type":"Feature","properties":{"address":"312 11th Ave New York NY, 10001","name":"Hudson Food Market"},"geometry":{"type":"Point","coordinates":[-74.003976,40.753029]}},{"type":"Feature","properties":{"address":"514 Hudson St New York NY, 10014","name":"Hudson Gourmet"},"geometry":{"type":"Point","coordinates":[-74.006305,40.733586]}},{"type":"Feature","properties":{"address":"303 10th Ave New York NY, 10001","name":"Hudson Market"},"geometry":{"type":"Point","coordinates":[-74.002082,40.750595]}},{"type":"Feature","properties":{"address":"345 Hudson St New York NY, 10014","name":"Hudson Street Pharmacy"},"geometry":{"type":"Point","coordinates":[-74.007267,40.727519]}},{"type":"Feature","properties":{"address":"59 Norman Ave Brooklyn NY, 11222","name":"I & I Deli"},"geometry":{"type":"Point","coordinates":[-73.953223,40.724944]}},{"type":"Feature","properties":{"address":"215 Bowery St Brooklyn NY, 11224","name":"Iconic Magazine"},"geometry":{"type":"Point","coordinates":[-73.979251,40.574746]}},{"type":"Feature","properties":{"address":"2328 Mermaid Ave Brooklyn NY, 11224","name":"In N Out Deli Grill"},"geometry":{"type":"Point","coordinates":[-73.990985,40.575935]}},{"type":"Feature","properties":{"address":"1165 Broadway Brooklyn NY, 11221","name":"Indy Market"},"geometry":{"type":"Point","coordinates":[-73.928018,40.692888]}},{"type":"Feature","properties":{"address":"1508 Avenue J Brooklyn NY, 11230","name":"International News"},"geometry":{"type":"Point","coordinates":[-73.961041,40.625223]}},{"type":"Feature","properties":{"address":"1524 Avenue M Brooklyn NY, 11230","name":"International News"},"geometry":{"type":"Point","coordinates":[-73.959264,40.618092]}},{"type":"Feature","properties":{"address":"2071 Clove Rd Staten Island NY, 10304","name":"Intoxx Fitness"},"geometry":{"type":"Point","coordinates":[-74.084019,40.604463]}},{"type":"Feature","properties":{"address":"329 Church Ave Brooklyn NY, 11218","name":"Isaac Apple"},"geometry":{"type":"Point","coordinates":[-73.976658,40.643967]}},{"type":"Feature","properties":{"address":"2031 Forest Ave Staten Island NY, 10303","name":"Island Convenience"},"geometry":{"type":"Point","coordinates":[-74.157089,40.626154]}},{"type":"Feature","properties":{"address":"6 Ferry Terminal Dr Staten Island NY, 10301","name":"Island Soft Pretzel"},"geometry":{"type":"Point","coordinates":[-74.094327,40.628276]}},{"type":"Feature","properties":{"address":"1802 Ave U Brooklyn NY, 11229","name":"Iv Seasons Deli"},"geometry":{"type":"Point","coordinates":[-73.95341,40.599175]}},{"type":"Feature","properties":{"address":"233 Port Richmond Staten Island NY, 10302","name":"J & J General Store"},"geometry":{"type":"Point","coordinates":[-74.137921,40.630538]}},{"type":"Feature","properties":{"address":"30-28 Murray Ln Flushing NY, 11354","name":"J & S Power Beverage"},"geometry":{"type":"Point","coordinates":[-73.813943,40.770768]}},{"type":"Feature","properties":{"address":"1840 Coney Island Ave Brooklyn NY, 11230","name":"J And J Grocery"},"geometry":{"type":"Point","coordinates":[-73.962894,40.612422]}},{"type":"Feature","properties":{"address":"601 W 26th St New York NY, 10001","name":"J And P Lobby"},"geometry":{"type":"Point","coordinates":[-74.006769,40.751272]}},{"type":"Feature","properties":{"address":"242 Sullivan St New York NY, 10012","name":"J.w. Market"},"geometry":{"type":"Point","coordinates":[-73.999378,40.73007]}},{"type":"Feature","properties":{"address":"334 Amsterdam Ave New York NY, 10023","name":"Jcc Manhattan"},"geometry":{"type":"Point","coordinates":[-73.979888,40.781002]}},{"type":"Feature","properties":{"address":"194 8th Ave New York NY, 10011","name":"Jeannies Deli"},"geometry":{"type":"Point","coordinates":[-73.999949,40.743291]}},{"type":"Feature","properties":{"address":"La Guardia Airport Flushing NY, 11374","name":"Jet Rock"},"geometry":{"type":"Point","coordinates":[-73.876,40.78777]}},{"type":"Feature","properties":{"address":"151 Knickerbocker Ave Brooklyn NY, 11237","name":"Jia Li / C&p Beer"},"geometry":{"type":"Point","coordinates":[-73.927984,40.704291]}},{"type":"Feature","properties":{"address":"208 Clifton Place Brooklyn NY, 11216","name":"Jia Li Beverage Wholesale"},"geometry":{"type":"Point","coordinates":[-73.956104,40.688581]}},{"type":"Feature","properties":{"address":"1373 Bay St Staten Island NY, 10305","name":"Joanns Deli"},"geometry":{"type":"Point","coordinates":[-74.06323,40.610162]}},{"type":"Feature","properties":{"address":"552 Driggs Ave Brooklyn NY, 11211","name":"Joes Busy Corner Gourmet Deli"},"geometry":{"type":"Point","coordinates":[-73.956288,40.717166]}},{"type":"Feature","properties":{"address":"260 Nassau Ave Brooklyn NY, 11222","name":"Johns Deli & Grocery 260"},"geometry":{"type":"Point","coordinates":[-73.940894,40.725959]}},{"type":"Feature","properties":{"address":"1881 Nostrand Ave Brooklyn NY, 11226","name":"Js Nostrand Market"},"geometry":{"type":"Point","coordinates":[-73.94838,40.639671]}},{"type":"Feature","properties":{"address":"447 Broadway New York NY, 10003","name":"Jubilee Market"},"geometry":{"type":"Point","coordinates":[-74.001059,40.720357]}},{"type":"Feature","properties":{"address":"80 Varick St New York NY, 10013","name":"Just Delicious Deli"},"geometry":{"type":"Point","coordinates":[-74.006157,40.723437]}},{"type":"Feature","properties":{"address":"52 N 11th St Brooklyn NY, 11249","name":"K & J Deli & Organic"},"geometry":{"type":"Point","coordinates":[-73.959001,40.722315]}},{"type":"Feature","properties":{"address":"146 Nassau Ave Brooklyn NY, 11222","name":"K & M Gourmet Deli"},"geometry":{"type":"Point","coordinates":[-73.947592,40.724821]}},{"type":"Feature","properties":{"address":"364 W 23rd St New York NY, 10011","name":"K And K Convenience Store"},"geometry":{"type":"Point","coordinates":[-74.000982,40.746355]}},{"type":"Feature","properties":{"address":"260 Bushwick Ave Brooklyn NY, 11206","name":"Khims Millennium Iv Inc"},"geometry":{"type":"Point","coordinates":[-73.939754,40.707164]}},{"type":"Feature","properties":{"address":"443 Morris Park Ave Bronx NY, 10462","name":"Kingdom Food"},"geometry":{"type":"Point","coordinates":[-73.873178,40.840372]}},{"type":"Feature","properties":{"address":"1360 Hempstead Turnpike Elmont NY, 11003","name":"Kings 1360 C-store"},"geometry":{"type":"Point","coordinates":[-73.691059,40.708021]}},{"type":"Feature","properties":{"address":"2115 Linden Blvd Elmont NY, 11003","name":"Kings 2115 Linden C-store"},"geometry":{"type":"Point","coordinates":[-73.722564,40.689721]}},{"type":"Feature","properties":{"address":"360 Rockaway Turnpike Cedarhurst NY, 11516","name":"Kings Cedarhurst Car Care Inc"},"geometry":{"type":"Point","coordinates":[-73.735954,40.625343]}},{"type":"Feature","properties":{"address":"1426 Kings Highway Brooklyn NY, 11229","name":"Kings Convenience"},"geometry":{"type":"Point","coordinates":[-73.958509,40.608658]}},{"type":"Feature","properties":{"address":"451 Clarkson Ave Brooklyn NY, 11203","name":"Kings County Hospital (cafeteria)"},"geometry":{"type":"Point","coordinates":[-73.944039,40.655773]}},{"type":"Feature","properties":{"address":"135-45 Cross Bay Blvd Ozone Park NY, 11417","name":"Kings Cross Bay Car Care Inc"},"geometry":{"type":"Point","coordinates":[-73.843166,40.672544]}},{"type":"Feature","properties":{"address":"1702 E 16th St Brooklyn NY, 11229","name":"Kings Deli Grocery"},"geometry":{"type":"Point","coordinates":[-73.957199,40.608133]}},{"type":"Feature","properties":{"address":"1801 Ave U Brooklyn NY, 11229","name":"Kings Express Deli"},"geometry":{"type":"Point","coordinates":[-73.953374,40.599179]}},{"type":"Feature","properties":{"address":"1291 Peninsula Blvd Hewlett NY, 11557","name":"Kings Hewlett Service Station Inc"},"geometry":{"type":"Point","coordinates":[-73.70389,40.64381]}},{"type":"Feature","properties":{"address":"492 Clarkson Ave Brooklyn NY, 11203","name":"Kings Pharmacy & Surgical"},"geometry":{"type":"Point","coordinates":[-73.94304,40.655836]}},{"type":"Feature","properties":{"address":"1054 W Beech St Long Beach NY, 11561","name":"Kings Pharmacy"},"geometry":{"type":"Point","coordinates":[-73.69892,40.586014]}},{"type":"Feature","properties":{"address":"2771 Knapp St Brooklyn NY, 11235","name":"Knapp Street Bagels"},"geometry":{"type":"Point","coordinates":[-73.931443,40.586585]}},{"type":"Feature","properties":{"address":"80 7th Ave New York NY, 10011","name":"L & M Deli"},"geometry":{"type":"Point","coordinates":[-73.999129,40.739303]}},{"type":"Feature","properties":{"address":"223 Montrose Ave Brooklyn NY, 11206","name":"L Stop Gourmet"},"geometry":{"type":"Point","coordinates":[-73.940129,40.707625]}},{"type":"Feature","properties":{"address":"51 Morgan Ave Brooklyn NY, 11237","name":"L-mos Market"},"geometry":{"type":"Point","coordinates":[-73.931657,40.705507]}},{"type":"Feature","properties":{"address":"23 W Park Ave Long Beach NY, 11561","name":"L.b.railroad Street Newsstand"},"geometry":{"type":"Point","coordinates":[-73.66487,40.588648]}},{"type":"Feature","properties":{"address":"7901 13th Ave Brooklyn NY, 11228","name":"La Bella"},"geometry":{"type":"Point","coordinates":[-74.009981,40.617867]}},{"type":"Feature","properties":{"address":"44-01 30th Ave Astoria NY, 11103","name":"La Luna Deli & Cafe"},"geometry":{"type":"Point","coordinates":[-73.911623,40.762309]}},{"type":"Feature","properties":{"address":"4520 Broadway New York NY, 10040","name":"Lai Lai"},"geometry":{"type":"Point","coordinates":[-73.931728,40.858452]}},{"type":"Feature","properties":{"address":"12-01 Jackson Ave Long Island City NY, 11101","name":"Lama Trading-natural Frtr"},"geometry":{"type":"Point","coordinates":[-73.950663,40.743572]}},{"type":"Feature","properties":{"address":"1440 Richmond Ave Staten Island NY, 10314","name":"Lander Market"},"geometry":{"type":"Point","coordinates":[-74.158682,40.613177]}},{"type":"Feature","properties":{"address":"905 Metropolitan Ave Brooklyn NY, 11211","name":"Late Night & Late Gourmet"},"geometry":{"type":"Point","coordinates":[-73.938886,40.714602]}},{"type":"Feature","properties":{"address":"89-02 Merrick Blvd Jamaica NY, 11432","name":"Latin Grill Factory"},"geometry":{"type":"Point","coordinates":[-73.795418,40.708027]}},{"type":"Feature","properties":{"address":"683 Broadway New York NY, 10012","name":"Le Basket"},"geometry":{"type":"Point","coordinates":[-73.994686,40.72793]}},{"type":"Feature","properties":{"address":"387 Graham Ave Brooklyn NY, 11211","name":"Lemon Tree Natural Market"},"geometry":{"type":"Point","coordinates":[-73.944696,40.71642]}},{"type":"Feature","properties":{"address":"127 Rivington St New York NY, 10002","name":"Les Mini Mart"},"geometry":{"type":"Point","coordinates":[-73.987041,40.719677]}},{"type":"Feature","properties":{"address":"Marine Air Terminal Flushing NY, 11371","name":"Lga Airport"},"geometry":{"type":"Point","coordinates":[-73.88591,40.76904]}},{"type":"Feature","properties":{"address":"522 9th Ave New York NY, 10018","name":"Lincoln Gourmet Deli"},"geometry":{"type":"Point","coordinates":[-73.994088,40.756411]}},{"type":"Feature","properties":{"address":"33 Lincoln Place Brooklyn NY, 11225","name":"Lincoln Market"},"geometry":{"type":"Point","coordinates":[-73.978618,40.677304]}},{"type":"Feature","properties":{"address":"60 E 42nd St New York NY, 10165","name":"Lincoln Newstand"},"geometry":{"type":"Point","coordinates":[-73.97839,40.75243]}},{"type":"Feature","properties":{"address":"204 Clinton St New York NY, 10002","name":"Loho Gourmet Deli"},"geometry":{"type":"Point","coordinates":[-73.987112,40.713821]}},{"type":"Feature","properties":{"address":"252 10th Ave New York NY, 10001","name":"London Terrance"},"geometry":{"type":"Point","coordinates":[-74.003446,40.748708]}},{"type":"Feature","properties":{"address":"111 Pelham Rd New Rochelle NY, 10805","name":"Loupino Deli"},"geometry":{"type":"Point","coordinates":[-73.774152,40.90551]}},{"type":"Feature","properties":{"address":"1 Pro Health Plaza Lake Success NY, 11042","name":"Ls Quad Cafe"},"geometry":{"type":"Point","coordinates":[-73.69096,40.75874]}},{"type":"Feature","properties":{"address":"400 Bedford Ave Brooklyn NY, 11249","name":"Lucky 7 Gourmet"},"geometry":{"type":"Point","coordinates":[-73.963736,40.710647]}},{"type":"Feature","properties":{"address":"2713 Avenue U Brooklyn NY, 11229","name":"Lucky Seven Smoke Shop N Deli"},"geometry":{"type":"Point","coordinates":[-73.944251,40.600171]}},{"type":"Feature","properties":{"address":"96-27 Atlantic Ave Woodhaven NY, 11421","name":"M & N Deli Grocery"},"geometry":{"type":"Point","coordinates":[-73.84616,40.688991]}},{"type":"Feature","properties":{"address":"186 Broadway Brooklyn NY, 11211","name":"M & N Deli Organic"},"geometry":{"type":"Point","coordinates":[-73.962032,40.709817]}},{"type":"Feature","properties":{"address":"124 Thompson St New York NY, 10012","name":"M & O Market"},"geometry":{"type":"Point","coordinates":[-74.00146,40.726268]}},{"type":"Feature","properties":{"address":"2162 Forest Ave Staten Island NY, 10303","name":"M & Z Deli"},"geometry":{"type":"Point","coordinates":[-74.161771,40.626635]}},{"type":"Feature","properties":{"address":"2875 W 8th St Brooklyn NY, 11224","name":"M.v Quick Stop Corp"},"geometry":{"type":"Point","coordinates":[-73.976313,40.577981]}},{"type":"Feature","properties":{"address":"19 Waverly Place New York NY, 10003","name":"M2m"},"geometry":{"type":"Point","coordinates":[-73.994561,40.730226]}},{"type":"Feature","properties":{"address":"120 W 56th St New York NY, 10019","name":"Macquarie - Cafe 18"},"geometry":{"type":"Point","coordinates":[-73.978674,40.764062]}},{"type":"Feature","properties":{"address":"342 Canal St New York NY, 10013","name":"Mahant 342"},"geometry":{"type":"Point","coordinates":[-74.003303,40.720423]}},{"type":"Feature","properties":{"address":"350 W 37th St New York NY, 10018","name":"Mamamoo Hilarious Kitchen"},"geometry":{"type":"Point","coordinates":[-73.993682,40.754772]}},{"type":"Feature","properties":{"address":"57 Audubon Ave New York NY, 10032","name":"Manhattan Deli Store Corp"},"geometry":{"type":"Point","coordinates":[-73.93825,40.84065]}},{"type":"Feature","properties":{"address":"146 Graham Ave Brooklyn NY, 11206","name":"Mannys Deli & Grocery"},"geometry":{"type":"Point","coordinates":[-73.94306,40.706482]}},{"type":"Feature","properties":{"address":"931 Manor Rd Staten Island NY, 10314","name":"Manor Superette"},"geometry":{"type":"Point","coordinates":[-74.120763,40.604139]}},{"type":"Feature","properties":{"address":"5187 Broadway Bronx NY, 10468","name":"Marble Hill Garden Of Edin"},"geometry":{"type":"Point","coordinates":[-73.910079,40.874457]}},{"type":"Feature","properties":{"address":"120 Bedford Ave Brooklyn NY, 11249","name":"Mark Twain Deli"},"geometry":{"type":"Point","coordinates":[-73.955723,40.719693]}},{"type":"Feature","properties":{"address":"810 8th Ave New York NY, 10019","name":"Marketplace Emporium #1980"},"geometry":{"type":"Point","coordinates":[-73.986284,40.762053]}},{"type":"Feature","properties":{"address":"3 World Financial Center New York NY, 10285","name":"Martin News"},"geometry":{"type":"Point","coordinates":[-74.014972,40.714131]}},{"type":"Feature","properties":{"address":"55 Water St New York NY, 10041","name":"Martin News"},"geometry":{"type":"Point","coordinates":[-74.009653,40.70366]}},{"type":"Feature","properties":{"address":"388 Greenwich St New York NY, 10013","name":"Martins News - 388 Greenwch"},"geometry":{"type":"Point","coordinates":[-74.01006,40.720473]}},{"type":"Feature","properties":{"address":"129 Ridge St New York NY, 10002","name":"Master Mini Market"},"geometry":{"type":"Point","coordinates":[-73.982885,40.719528]}},{"type":"Feature","properties":{"address":"72 Bear St Staten Island NY, 10304","name":"Matco"},"geometry":{"type":"Point","coordinates":[-74.09519,40.591979]}},{"type":"Feature","properties":{"address":"199 Chambers St New York NY, 10007","name":"Mbj @ Bmcc. Inc."},"geometry":{"type":"Point","coordinates":[-74.012189,40.716862]}},{"type":"Feature","properties":{"address":"57 Nassau Ave Brooklyn NY, 11222","name":"Mccarren Deli & Grill"},"geometry":{"type":"Point","coordinates":[-73.952068,40.723336]}},{"type":"Feature","properties":{"address":"211 Mclean Ave Yonkers NY, 10705","name":"Mclean Pharmacy"},"geometry":{"type":"Point","coordinates":[-73.889681,40.913031]}},{"type":"Feature","properties":{"address":"550 W 54th St New York NY, 10019","name":"Mercedes House Market"},"geometry":{"type":"Point","coordinates":[-73.991931,40.768014]}},{"type":"Feature","properties":{"address":"550 West 54th St New York NY, 10019","name":"Mercedes House Market"},"geometry":{"type":"Point","coordinates":[-73.991931,40.768014]}},{"type":"Feature","properties":{"address":"408 E 8th St New York NY, 10009","name":"Mes Tropical Bar"},"geometry":{"type":"Point","coordinates":[-73.976293,40.723795]}},{"type":"Feature","properties":{"address":"1381 Myrtle Ave Brooklyn NY, 11237","name":"Met Fresh"},"geometry":{"type":"Point","coordinates":[-73.920876,40.698543]}},{"type":"Feature","properties":{"address":"525 Metropolitan Ave Brooklyn NY, 11211","name":"Metro 525 Deli"},"geometry":{"type":"Point","coordinates":[-73.951295,40.714061]}},{"type":"Feature","properties":{"address":"78 Havemeyer St Brooklyn NY, 11211","name":"Metro Deli"},"geometry":{"type":"Point","coordinates":[-73.955209,40.714131]}},{"type":"Feature","properties":{"address":"135 Metropolitan Ave Brooklyn NY, 11249","name":"Metro Organic"},"geometry":{"type":"Point","coordinates":[-73.962377,40.716189]}},{"type":"Feature","properties":{"address":"1142 Bedford Ave Brooklyn NY, 11216","name":"Metropolitan City Market"},"geometry":{"type":"Point","coordinates":[-73.954292,40.685277]}},{"type":"Feature","properties":{"address":"150 Myrtle Ave Brooklyn NY, 11201","name":"Metropolitan City Market"},"geometry":{"type":"Point","coordinates":[-73.982696,40.693572]}},{"type":"Feature","properties":{"address":"48-01 31st St Long Island City NY, 11101","name":"Milkman / Mitchells Ny"},"geometry":{"type":"Point","coordinates":[-73.936157,40.741244]}},{"type":"Feature","properties":{"address":"227 E 7th St New York NY, 10009","name":"Mini Es Wholesome Foods"},"geometry":{"type":"Point","coordinates":[-73.979219,40.724222]}},{"type":"Feature","properties":{"address":"1101 Avenue S Brooklyn NY, 11223","name":"Mini Market"},"geometry":{"type":"Point","coordinates":[-73.961342,40.603026]}},{"type":"Feature","properties":{"address":"4183 Broadway New York NY, 10033","name":"Moca Deli Grocery"},"geometry":{"type":"Point","coordinates":[-73.937982,40.847716]}},{"type":"Feature","properties":{"address":"4183 Vroadway Manhattan NY, 10033","name":"Moca Deli"},"geometry":{"type":"Point","coordinates":[-73.937982,40.847716]}},{"type":"Feature","properties":{"address":"793 Broadway New York NY, 10003","name":"Modern Gourmet"},"geometry":{"type":"Point","coordinates":[-73.991353,40.7321]}},{"type":"Feature","properties":{"address":"144 Wyckoff Ave Brooklyn NY, 11237","name":"Moguil Halal"},"geometry":{"type":"Point","coordinates":[-73.917158,40.703012]}},{"type":"Feature","properties":{"address":"889 Manhattan Ave Brooklyn NY, 11222","name":"Mom & Pops Organic Market"},"geometry":{"type":"Point","coordinates":[-73.954154,40.729974]}},{"type":"Feature","properties":{"address":"505 Long Beach Blvd Long Beach NY, 11561","name":"Monarch Beverage"},"geometry":{"type":"Point","coordinates":[-73.658098,40.590354]}},{"type":"Feature","properties":{"address":"410 Knickerbocker Ave Brooklyn NY, 11237","name":"Mr Lemon"},"geometry":{"type":"Point","coordinates":[-73.919998,40.699745]}},{"type":"Feature","properties":{"address":"892 Manhattan Ave Brooklyn NY, 11222","name":"Mr. Berry"},"geometry":{"type":"Point","coordinates":[-73.95413,40.729922]}},{"type":"Feature","properties":{"address":"344 Graham Ave Brooklyn NY, 11211","name":"Mr. Grahams Market"},"geometry":{"type":"Point","coordinates":[-73.944403,40.714661]}},{"type":"Feature","properties":{"address":"167 Bedford Ave Brooklyn NY, 11211","name":"Mr. Lime & Mr. Kiwi"},"geometry":{"type":"Point","coordinates":[-73.957079,40.718428]}},{"type":"Feature","properties":{"address":"92 Manhattan Ave Brooklyn NY, 11206","name":"Mr. Nice Guy Deli"},"geometry":{"type":"Point","coordinates":[-73.944603,40.70538]}},{"type":"Feature","properties":{"address":"219 Havemeyer St Brooklyn NY, 11211","name":"Mr. Pina Fruit & Vegetables"},"geometry":{"type":"Point","coordinates":[-73.958978,40.709328]}},{"type":"Feature","properties":{"address":"658 Manhattan Ave Brooklyn NY, 11222","name":"Mr. Plum"},"geometry":{"type":"Point","coordinates":[-73.951215,40.724511]}},{"type":"Feature","properties":{"address":"500 6th Ave New York NY, 10011","name":"Murrays Bagel"},"geometry":{"type":"Point","coordinates":[-73.997465,40.736493]}},{"type":"Feature","properties":{"address":"3377 Broadway New York NY, 10031","name":"Nadal 1"},"geometry":{"type":"Point","coordinates":[-73.954288,40.821368]}},{"type":"Feature","properties":{"address":"1781 Broadway Brooklyn NY, 11207","name":"Narketplace - Brooklyn"},"geometry":{"type":"Point","coordinates":[-73.909547,40.682372]}},{"type":"Feature","properties":{"address":"36b Ave A New York NY, 10009","name":"Native Bean"},"geometry":{"type":"Point","coordinates":[-73.985405,40.723482]}},{"type":"Feature","properties":{"address":"31-28 Ditmars Blvd Astoria NY, 11105","name":"Natural Frontier - Astoria"},"geometry":{"type":"Point","coordinates":[-73.909862,40.775538]}},{"type":"Feature","properties":{"address":"1102 Cortelyou Rd Brooklyn NY, 11218","name":"Natural Frontier Market - Bklyn"},"geometry":{"type":"Point","coordinates":[-73.967881,40.639667]}},{"type":"Feature","properties":{"address":"1203 Myrtle Ave Brooklyn NY, 11221","name":"Natural Organic Deli Corp"},"geometry":{"type":"Point","coordinates":[-73.931947,40.697349]}},{"type":"Feature","properties":{"address":"182 Ralph Ave Brooklyn NY, 11233","name":"Natural Valley Market Inc"},"geometry":{"type":"Point","coordinates":[-73.922863,40.683654]}},{"type":"Feature","properties":{"address":"36 Ave A New York NY, 10009","name":"New Family Market / Bueno East Market"},"geometry":{"type":"Point","coordinates":[-73.985375,40.723524]}},{"type":"Feature","properties":{"address":"452 W 238th St Bronx NY, 10463","name":"New Riverdale Gourmet Deli"},"geometry":{"type":"Point","coordinates":[-73.905152,40.88732]}},{"type":"Feature","properties":{"address":"57-16 Roosevelt Queens NY, 11317","name":"New Smoke Shop Convenience"},"geometry":{"type":"Point","coordinates":[-73.907019,40.745253]}},{"type":"Feature","properties":{"address":"203 Spring St New York NY, 10012","name":"New Soho Chocolate Candy & Ice Cream"},"geometry":{"type":"Point","coordinates":[-74.003531,40.725313]}},{"type":"Feature","properties":{"address":"416 E 189 St Bronx NY, 11378","name":"New Sun Deli"},"geometry":{"type":"Point","coordinates":[-73.891961,40.860268]}},{"type":"Feature","properties":{"address":"603 W 168th St New York NY, 10032","name":"New University Deli"},"geometry":{"type":"Point","coordinates":[-73.939988,40.841171]}},{"type":"Feature","properties":{"address":"180 Central Park South New York NY, 10019","name":"New York Athletic Club"},"geometry":{"type":"Point","coordinates":[-73.978732,40.766743]}},{"type":"Feature","properties":{"address":"82 Havemeyer St Brooklyn NY, 11211","name":"New York Deli"},"geometry":{"type":"Point","coordinates":[-73.956041,40.713937]}},{"type":"Feature","properties":{"address":"118 Delancey St New York NY, 10002","name":"News And Smoke Shop"},"geometry":{"type":"Point","coordinates":[-73.988009,40.718577]}},{"type":"Feature","properties":{"address":"93 Norman Ave Brooklyn NY, 11222","name":"Norman Cafe"},"geometry":{"type":"Point","coordinates":[-73.951438,40.725533]}},{"type":"Feature","properties":{"address":"183 Bedford Ave Brooklyn NY, 11211","name":"North 7 Deli (market)"},"geometry":{"type":"Point","coordinates":[-73.957632,40.717907]}},{"type":"Feature","properties":{"address":"1695 1st Ave New York NY, 10128","name":"North Elm Health"},"geometry":{"type":"Point","coordinates":[-73.948528,40.778009]}},{"type":"Feature","properties":{"address":"19 Hyatt St Staten Island NY, 10301","name":"Not Guilty"},"geometry":{"type":"Point","coordinates":[-74.077221,40.641881]}},{"type":"Feature","properties":{"address":"1635 Lexington Ave New York NY, 10029","name":"Nsa - 1635 Lexington Avenue"},"geometry":{"type":"Point","coordinates":[-73.947465,40.79063]}},{"type":"Feature","properties":{"address":"600 Community Drive Manhasset NY, 11030","name":"Nslism"},"geometry":{"type":"Point","coordinates":[-73.703196,40.774153]}},{"type":"Feature","properties":{"address":"246 9th Ave New York NY, 10001","name":"Nucare Pharmacy"},"geometry":{"type":"Point","coordinates":[-74.000464,40.747657]}},{"type":"Feature","properties":{"address":"1660 Madison Ave New York NY, 10029","name":"Nyc Fresh Market"},"geometry":{"type":"Point","coordinates":[-73.947388,40.796506]}},{"type":"Feature","properties":{"address":"1855 Broadway New York NY, 10023","name":"Nyit - Nyc"},"geometry":{"type":"Point","coordinates":[-73.982223,40.769709]}},{"type":"Feature","properties":{"address":"4014 1st Ave Brooklyn NY, 11232","name":"Oasis Snacks"},"geometry":{"type":"Point","coordinates":[-74.013956,40.655454]}},{"type":"Feature","properties":{"address":"80 39th St Brooklyn NY, 11232","name":"Oasis Snacks"},"geometry":{"type":"Point","coordinates":[-74.013112,40.656846]}},{"type":"Feature","properties":{"address":"2970 Ocean Ave Brooklyn NY, 11235","name":"Ocean 2 Deli"},"geometry":{"type":"Point","coordinates":[-73.949408,40.588777]}},{"type":"Feature","properties":{"address":"3917 18th Ave Brooklyn NY, 11218","name":"Ocean Mini Mart"},"geometry":{"type":"Point","coordinates":[-73.972996,40.632717]}},{"type":"Feature","properties":{"address":"227 Nassau Ave Brooklyn NY, 11222","name":"Ohs Mini Market"},"geometry":{"type":"Point","coordinates":[-73.943278,40.725737]}},{"type":"Feature","properties":{"address":"891 Grand St Brooklyn NY, 11211","name":"Olive Deli"},"geometry":{"type":"Point","coordinates":[-73.938356,40.712518]}},{"type":"Feature","properties":{"address":"3060 Broadway New York NY, 10027","name":"Olive Tree Deli"},"geometry":{"type":"Point","coordinates":[-73.961322,40.811343]}},{"type":"Feature","properties":{"address":"351 W 125th St New York NY, 10027","name":"Omega Salad Bar & Deli"},"geometry":{"type":"Point","coordinates":[-73.952889,40.810896]}},{"type":"Feature","properties":{"address":"54-24 82nd St Elmhurst NY, 11373","name":"Omg Beverage Inc"},"geometry":{"type":"Point","coordinates":[-73.882479,40.730701]}},{"type":"Feature","properties":{"address":"1840 Westchester Ave Bronx NY, 10472","name":"On The 6 Deli"},"geometry":{"type":"Point","coordinates":[-73.864541,40.832398]}},{"type":"Feature","properties":{"address":"520 E 76th St New York NY, 10021","name":"One Drop Distributor"},"geometry":{"type":"Point","coordinates":[-73.950743,40.768978]}},{"type":"Feature","properties":{"address":"Essex St New York NY, 10002","name":"One Essex Market"},"geometry":{"type":"Point","coordinates":[-73.986709,40.721464]}},{"type":"Feature","properties":{"address":"490 Elmont Rd Elmont NY, 11003","name":"Optimo Cards & Gifts"},"geometry":{"type":"Point","coordinates":[-73.715194,40.697148]}},{"type":"Feature","properties":{"address":"121 Graham Ave Brooklyn NY, 11206","name":"Orange Tree Market"},"geometry":{"type":"Point","coordinates":[-73.942982,40.706006]}},{"type":"Feature","properties":{"address":"517 Grand St Brooklyn NY, 11211","name":"Orange Tree Naturals"},"geometry":{"type":"Point","coordinates":[-73.950531,40.711013]}},{"type":"Feature","properties":{"address":"1018 Manhattan Ave Brooklyn NY, 11222","name":"Organic Deli & Grocery Corp"},"geometry":{"type":"Point","coordinates":[-73.954808,40.733604]}},{"type":"Feature","properties":{"address":"376 Union Ave Brooklyn NY, 11211","name":"Organic Gourmet Deli Corp"},"geometry":{"type":"Point","coordinates":[-73.951218,40.711532]}},{"type":"Feature","properties":{"address":"43 Bogart St Brooklyn NY, 11206","name":"Organic Planet Corp"},"geometry":{"type":"Point","coordinates":[-73.933249,40.705124]}},{"type":"Feature","properties":{"address":"205 N 9th St Brooklyn NY, 11211","name":"Organic Planet"},"geometry":{"type":"Point","coordinates":[-73.954842,40.7179]}},{"type":"Feature","properties":{"address":"790 Manhattan Ave Brooklyn NY, 11222","name":"P&p Candy Store Inc"},"geometry":{"type":"Point","coordinates":[-73.952968,40.727597]}},{"type":"Feature","properties":{"address":"405 W 23rd St New York NY, 10011","name":"Pantry Deli"},"geometry":{"type":"Point","coordinates":[-74.003882,40.747566]}},{"type":"Feature","properties":{"address":"244 10th Ave New York NY, 10001","name":"Paradise Market"},"geometry":{"type":"Point","coordinates":[-74.003592,40.748494]}},{"type":"Feature","properties":{"address":"510 West 218 West New York NY, 10034","name":"Park Terrace Deli"},"geometry":{"type":"Point","coordinates":[-73.921144,40.867758]}},{"type":"Feature","properties":{"address":"101 Bedford Ave Brooklyn NY, 11211","name":"Parkview Market"},"geometry":{"type":"Point","coordinates":[-73.955041,40.720321]}},{"type":"Feature","properties":{"address":"385 City Island Ave Bronx NY, 10464","name":"Pauls Market Place"},"geometry":{"type":"Point","coordinates":[-73.787303,40.849426]}},{"type":"Feature","properties":{"address":"605 5th Acenue Pelham NY, 10803","name":"Pelham Plaza"},"geometry":{"type":"Point","coordinates":[-73.807326,40.901353]}},{"type":"Feature","properties":{"address":"2 Penn Plaza New York NY, 10121","name":"Penn Shusi"},"geometry":{"type":"Point","coordinates":[-73.99167,40.74955]}},{"type":"Feature","properties":{"address":"300 W 110th St New York NY, 10026","name":"Pioneer - 300 W 110"},"geometry":{"type":"Point","coordinates":[-73.959019,40.800813]}},{"type":"Feature","properties":{"address":"289 Columbus Ave New York NY, 10023","name":"Pioneer-289 Columbus Ave"},"geometry":{"type":"Point","coordinates":[-73.977974,40.778543]}},{"type":"Feature","properties":{"address":"254 E Park Ave Long Beach NY, 11561","name":"Pk Smoke & Cards"},"geometry":{"type":"Point","coordinates":[-73.656459,40.58844]}},{"type":"Feature","properties":{"address":"1 Penn Plaza New York NY, 10119","name":"Planet Smoothie"},"geometry":{"type":"Point","coordinates":[-73.992471,40.751129]}},{"type":"Feature","properties":{"address":"37 Newkirk Plaza Brooklyn NY, 11226","name":"Plaza Fruit & Grocery"},"geometry":{"type":"Point","coordinates":[-73.962809,40.63553]}},{"type":"Feature","properties":{"address":"12 Newkirk Plaza Brooklyn NY, 11226","name":"Plaza Gourmet Deli"},"geometry":{"type":"Point","coordinates":[-73.962843,40.635698]}},{"type":"Feature","properties":{"address":"767 2nd Ave New York NY, 10017","name":"Pleroma"},"geometry":{"type":"Point","coordinates":[-73.972621,40.74927]}},{"type":"Feature","properties":{"address":"1424 Sheepshead Bay Rd Brooklyn NY, 11235","name":"Ponchos Gourmet Deli"},"geometry":{"type":"Point","coordinates":[-73.954464,40.587459]}},{"type":"Feature","properties":{"address":"191 Ave A New York NY, 10009","name":"Poppys Deli"},"geometry":{"type":"Point","coordinates":[-73.981405,40.728977]}},{"type":"Feature","properties":{"address":"1081 Saint Nicholas Ave New York NY, 10032","name":"Presbyterian Deli"},"geometry":{"type":"Point","coordinates":[-73.939962,40.837893]}},{"type":"Feature","properties":{"address":"228 Fort Washington Ave New York NY, 10032","name":"Prestige Cafe & Deli"},"geometry":{"type":"Point","coordinates":[-73.941953,40.842976]}},{"type":"Feature","properties":{"address":"1105 Church Ave Brooklyn NY, 11218","name":"Prosultos Mexicanos"},"geometry":{"type":"Point","coordinates":[-73.968957,40.647127]}},{"type":"Feature","properties":{"address":"4311 Broadway New York NY, 10033","name":"Q Mart"},"geometry":{"type":"Point","coordinates":[-73.934832,40.851947]}},{"type":"Feature","properties":{"address":"107 E 125th St New York NY, 10035","name":"Qnn Food"},"geometry":{"type":"Point","coordinates":[-73.938486,40.804827]}},{"type":"Feature","properties":{"address":"137-58 Northern Blvd Flushing NY, 11354","name":"Queens North Task Force"},"geometry":{"type":"Point","coordinates":[-73.829159,40.763556]}},{"type":"Feature","properties":{"address":"1101 Quentin Rd Brooklyn NY, 11229","name":"Quentin Rd Convenience"},"geometry":{"type":"Point","coordinates":[-73.961616,40.607882]}},{"type":"Feature","properties":{"address":"136 Main St East Rockaway NY, 11518","name":"Quick Pick Convenience"},"geometry":{"type":"Point","coordinates":[-73.666436,40.641811]}},{"type":"Feature","properties":{"address":"1806 Kings Hwy Brooklyn NY, 11229","name":"Radhan Krishna"},"geometry":{"type":"Point","coordinates":[-73.955381,40.610032]}},{"type":"Feature","properties":{"address":"26 Ann St New York NY, 10038","name":"Recreation At The Moxy"},"geometry":{"type":"Point","coordinates":[-74.007762,40.710822]}},{"type":"Feature","properties":{"address":"989 Main St New Rochelle NY, 10801","name":"Remis Place #1 Deli"},"geometry":{"type":"Point","coordinates":[-73.798689,40.898773]}},{"type":"Feature","properties":{"address":"1471 Richmond Ave Staten Island NY, 10314","name":"Richmond Gourmet"},"geometry":{"type":"Point","coordinates":[-74.159103,40.612465]}},{"type":"Feature","properties":{"address":"3779 Broadway New York NY, 10032","name":"Riverside Gourmet Market"},"geometry":{"type":"Point","coordinates":[-73.945268,40.833719]}},{"type":"Feature","properties":{"address":"210 Rivington St New York NY, 10002","name":"Rivington Foods"},"geometry":{"type":"Point","coordinates":[-73.982706,40.718356]}},{"type":"Feature","properties":{"address":"120 Mercer St New York NY, 10012","name":"Rma-scholastic Bldg"},"geometry":{"type":"Point","coordinates":[-73.999049,40.724073]}},{"type":"Feature","properties":{"address":"114-02 Rockaway Blvd South Ozone Park NY, 11420","name":"Rockaway Express"},"geometry":{"type":"Point","coordinates":[-73.824527,40.677017]}},{"type":"Feature","properties":{"address":"9627 Farragut Rd Brooklyn NY, 11236","name":"Rockaway Gourmet"},"geometry":{"type":"Point","coordinates":[-73.904124,40.646548]}},{"type":"Feature","properties":{"address":"37 1/2 W Grand St Mount Vernon NY, 10552","name":"Royal Finest Deli & Grill"},"geometry":{"type":"Point","coordinates":[-73.837948,40.925508]}},{"type":"Feature","properties":{"address":"780 Metropolitan Ave Brooklyn NY, 11211","name":"Royal Grocery"},"geometry":{"type":"Point","coordinates":[-73.942878,40.714674]}},{"type":"Feature","properties":{"address":"1201 2nd Ave New Hyde Park NY, 11040","name":"Ryder Joe Deli"},"geometry":{"type":"Point","coordinates":[-73.682527,40.730533]}},{"type":"Feature","properties":{"address":"700 North Ave New Rochelle NY, 10801","name":"Sage Cafe / Market / More"},"geometry":{"type":"Point","coordinates":[-73.788575,40.92555]}},{"type":"Feature","properties":{"address":"3459 Broadway New York NY, 10031","name":"Sam Deli"},"geometry":{"type":"Point","coordinates":[-73.95254,40.823739]}},{"type":"Feature","properties":{"address":"340 Grand St Brooklyn NY, 11211","name":"Sam Organic Deli"},"geometry":{"type":"Point","coordinates":[-73.956173,40.712524]}},{"type":"Feature","properties":{"address":"551 E 11th St New York NY, 10009","name":"Santa Barbara"},"geometry":{"type":"Point","coordinates":[-73.980067,40.727714]}},{"type":"Feature","properties":{"address":"1840 Amsterdam Ave New York NY, 10031","name":"Savory Deli & Grocery"},"geometry":{"type":"Point","coordinates":[-73.944773,40.829121]}},{"type":"Feature","properties":{"address":"157 Ave B New York NY, 10009","name":"Sheen Brothers"},"geometry":{"type":"Point","coordinates":[-73.98001,40.726703]}},{"type":"Feature","properties":{"address":"1717 Avenue Z Brooklyn NY, 11235","name":"Sheepshead Bay Fruit & Vegetable"},"geometry":{"type":"Point","coordinates":[-73.95174,40.588254]}},{"type":"Feature","properties":{"address":"2001 Cropsey Ave Brooklyn NY, 11214","name":"Shell Gas"},"geometry":{"type":"Point","coordinates":[-74.00262,40.600066]}},{"type":"Feature","properties":{"address":"113 New Main St Yonkers NY, 10701","name":"Shop Fair - Yonkers"},"geometry":{"type":"Point","coordinates":[-73.897335,40.933371]}},{"type":"Feature","properties":{"address":"1125 Fulton St Brooklyn NY, 11238","name":"Shop Fair Supermarket"},"geometry":{"type":"Point","coordinates":[-73.95674,40.681361]}},{"type":"Feature","properties":{"address":"Adam Clayton Powell Jr Blvd New York NY, 10027","name":"Shop Fair Supermarket"},"geometry":{"type":"Point","coordinates":[-73.944915,40.813784]}},{"type":"Feature","properties":{"address":"306 E 170th St Bronx NY, 10456","name":"Shop Fair"},"geometry":{"type":"Point","coordinates":[-73.910341,40.837399]}},{"type":"Feature","properties":{"address":"161-01 Northern Blvd Flushing NY, 11358","name":"Shop N Click"},"geometry":{"type":"Point","coordinates":[-73.804637,40.762631]}},{"type":"Feature","properties":{"address":"23 Lexington Ave New York NY, 10010","name":"Smile To Go Flatiron"},"geometry":{"type":"Point","coordinates":[-73.984479,40.739859]}},{"type":"Feature","properties":{"address":"1980 Victory Blvd Staten Island NY, 10314","name":"Smileys Bagels"},"geometry":{"type":"Point","coordinates":[-74.129787,40.612538]}},{"type":"Feature","properties":{"address":"25-17 Queens Plz N Long Island City NY, 11101","name":"Smoke Shop Queens Plaza"},"geometry":{"type":"Point","coordinates":[-73.940132,40.750916]}},{"type":"Feature","properties":{"address":"61 Delancey St New York NY, 10002","name":"Smoke Shop"},"geometry":{"type":"Point","coordinates":[-73.99079,40.71924]}},{"type":"Feature","properties":{"address":"300 Park Ave New York NY, 10022","name":"Sodexho - Colgate Palmolive"},"geometry":{"type":"Point","coordinates":[-73.974335,40.75687]}},{"type":"Feature","properties":{"address":"575 Madison Ave New York NY, 10022","name":"Sodexho - Rosenman Kmz Rosenman"},"geometry":{"type":"Point","coordinates":[-73.972639,40.761895]}},{"type":"Feature","properties":{"address":"245 Park Ave New York NY, 10167","name":"Sodexo - Societe Generale Unit # 8833500"},"geometry":{"type":"Point","coordinates":[-73.975432,40.75494]}},{"type":"Feature","properties":{"address":"40 Prince St New York NY, 10012","name":"Soho Garden"},"geometry":{"type":"Point","coordinates":[-73.995393,40.723233]}},{"type":"Feature","properties":{"address":"186 Prince St New York NY, 10012","name":"Soho News International"},"geometry":{"type":"Point","coordinates":[-74.00221,40.726415]}},{"type":"Feature","properties":{"address":"17 Thompson St New York NY, 10013","name":"Sohos Finest Market"},"geometry":{"type":"Point","coordinates":[-74.004566,40.722566]}},{"type":"Feature","properties":{"address":"1407 E 22nd St Brooklyn NY, 11210","name":"South Brooklyn Beverage Inc."},"geometry":{"type":"Point","coordinates":[-73.952839,40.617545]}},{"type":"Feature","properties":{"address":"1 University Place New York NY, 10003","name":"Space Market"},"geometry":{"type":"Point","coordinates":[-73.9954,40.730899]}},{"type":"Feature","properties":{"address":"202 Mott St New York NY, 10012","name":"Spring Mart"},"geometry":{"type":"Point","coordinates":[-73.995534,40.721414]}},{"type":"Feature","properties":{"address":"984 Broadway Brooklyn NY, 10010","name":"Sprout Market"},"geometry":{"type":"Point","coordinates":[-73.989209,40.742518]}},{"type":"Feature","properties":{"address":"11 8th Ave New York NY, 10014","name":"Spyros Deli"},"geometry":{"type":"Point","coordinates":[-74.004743,40.737608]}},{"type":"Feature","properties":{"address":"168 8th Ave New York NY, 10011","name":"Square Deli"},"geometry":{"type":"Point","coordinates":[-74.0005,40.742519]}},{"type":"Feature","properties":{"address":"21 St Marks Pl New York NY, 10003","name":"St. Marks Market"},"geometry":{"type":"Point","coordinates":[-73.98966,40.729445]}},{"type":"Feature","properties":{"address":"100 Stanton St New York NY, 10002","name":"Stanton Smoke Shop"},"geometry":{"type":"Point","coordinates":[-73.987991,40.721298]}},{"type":"Feature","properties":{"address":"5 Ferry Terminal Dr Staten Island NY, 10301","name":"Statue Of Liberty Cafe"},"geometry":{"type":"Point","coordinates":[-74.094327,40.628276]}},{"type":"Feature","properties":{"address":"889 Broadway Brooklyn NY, 11206","name":"Stay Fresh"},"geometry":{"type":"Point","coordinates":[-73.937194,40.698067]}},{"type":"Feature","properties":{"address":"122 Suffolk St New York NY, 10002","name":"Stop 1 Deli"},"geometry":{"type":"Point","coordinates":[-73.985959,40.719204]}},{"type":"Feature","properties":{"address":"172 Allen St New York NY, 10002","name":"Stop 1 Deli"},"geometry":{"type":"Point","coordinates":[-73.989082,40.721441]}},{"type":"Feature","properties":{"address":"39-58 61st St Woodside NY, 11377","name":"Stop N Go"},"geometry":{"type":"Point","coordinates":[-73.903339,40.745706]}},{"type":"Feature","properties":{"address":"350 W 14th St New York NY, 10014","name":"Strawberry Deli"},"geometry":{"type":"Point","coordinates":[-74.004776,40.7407]}},{"type":"Feature","properties":{"address":"470 9th Ave New York NY, 10018","name":"Sugar Deli"},"geometry":{"type":"Point","coordinates":[-73.995273,40.7548]}},{"type":"Feature","properties":{"address":"150 N 7th St Brooklyn NY, 11249","name":"Sunac"},"geometry":{"type":"Point","coordinates":[-73.958315,40.718202]}},{"type":"Feature","properties":{"address":"440 Union Ave Brooklyn NY, 11211","name":"Sunac"},"geometry":{"type":"Point","coordinates":[-73.951567,40.713635]}},{"type":"Feature","properties":{"address":"94 Avenue B New York NY, 10009","name":"Sunny And Annie"},"geometry":{"type":"Point","coordinates":[-73.981559,40.724579]}},{"type":"Feature","properties":{"address":"494 Broome Steet Newy York NY, 10013","name":"Sunrise Mart"},"geometry":{"type":"Point","coordinates":[-74.005157,40.720707]}},{"type":"Feature","properties":{"address":"72 Ralph Ave Brooklyn NY, 11221","name":"Sunrise"},"geometry":{"type":"Point","coordinates":[-73.923663,40.687663]}},{"type":"Feature","properties":{"address":"986 Gates Ave Brooklyn NY, 11221","name":"Sunshine Express Deli"},"geometry":{"type":"Point","coordinates":[-73.924289,40.689248]}},{"type":"Feature","properties":{"address":"627 Manhattan Ave Brooklyn NY, 11222","name":"Super Deli 627"},"geometry":{"type":"Point","coordinates":[-73.950889,40.723947]}},{"type":"Feature","properties":{"address":"600 W 160th St New York NY, 10032","name":"Super Foodtown"},"geometry":{"type":"Point","coordinates":[-73.658304,40.743364]}},{"type":"Feature","properties":{"address":"6400 Amboy Rd Staten Island NY, 10309","name":"Super Fresh"},"geometry":{"type":"Point","coordinates":[-74.216439,40.522822]}},{"type":"Feature","properties":{"address":"115 Essex St New York NY, 10002","name":"Sx Gourmet"},"geometry":{"type":"Point","coordinates":[-73.987746,40.719447]}},{"type":"Feature","properties":{"address":"224-01 North Conduit Blvd Jamaica NY, 11413","name":"T & C Convenience Center"},"geometry":{"type":"Point","coordinates":[-73.752632,40.666408]}},{"type":"Feature","properties":{"address":"48-12 Oceania St Oakland Gardens NY, 11364","name":"T & J Beverage Inc."},"geometry":{"type":"Point","coordinates":[-73.771733,40.754196]}},{"type":"Feature","properties":{"address":"4178 Victory Blvd Staten Island NY, 10314","name":"T And E Express Deli"},"geometry":{"type":"Point","coordinates":[-74.192404,40.590664]}},{"type":"Feature","properties":{"address":"954 Broadway Brooklyn NY, 11221","name":"T.k. Grill"},"geometry":{"type":"Point","coordinates":[-73.934969,40.696826]}},{"type":"Feature","properties":{"address":"100-02 Rockaway Blvd Ozone Park NY, 11417","name":"Tapout Fitness"},"geometry":{"type":"Point","coordinates":[-73.838793,40.679859]}},{"type":"Feature","properties":{"address":"52 Lortel Ave Staten Island NY, 10314","name":"Taste-d Beverages Inc."},"geometry":{"type":"Point","coordinates":[-74.11461,40.610266]}},{"type":"Feature","properties":{"address":"1807 Hylan Blvd Staten Island NY, 10305","name":"Tastebuds Natural Foods"},"geometry":{"type":"Point","coordinates":[-74.093741,40.585051]}},{"type":"Feature","properties":{"address":"2876 Gerritsen Ave Brooklyn NY, 11229","name":"The Beach Deli"},"geometry":{"type":"Point","coordinates":[-73.92226,40.590176]}},{"type":"Feature","properties":{"address":"1777 South Ave Staten Island NY, 10314","name":"The Bettered Bagel"},"geometry":{"type":"Point","coordinates":[-74.194366,40.601126]}},{"type":"Feature","properties":{"address":"204 Bushwick Ave Brooklyn NY, 11206","name":"The Lunch Box"},"geometry":{"type":"Point","coordinates":[-73.940044,40.708899]}},{"type":"Feature","properties":{"address":"188 Nassau Ave Brooklyn NY, 11222","name":"The Standard Deli"},"geometry":{"type":"Point","coordinates":[-73.945703,40.725454]}},{"type":"Feature","properties":{"address":" New York  11001 NY, Floral Park","name":"Thirsty City BeverageFloral Park"},"geometry":{"type":"Point","coordinates":[-73.706441,40.722685]}},{"type":"Feature","properties":{"address":"20 Thompson St New York NY, 10013","name":"Thompsons Finest Deli"},"geometry":{"type":"Point","coordinates":[-74.004542,40.722594]}},{"type":"Feature","properties":{"address":"103 E 2nd St New York NY, 10009","name":"Tlc Tea House"},"geometry":{"type":"Point","coordinates":[-73.987397,40.72369]}},{"type":"Feature","properties":{"address":"599 Lexington Ave New York NY, 10022","name":"Toasties"},"geometry":{"type":"Point","coordinates":[-73.971234,40.758039]}},{"type":"Feature","properties":{"address":"153 Ave A New York NY, 10009","name":"Tompkin Finest Gourmet"},"geometry":{"type":"Point","coordinates":[-73.982384,40.727631]}},{"type":"Feature","properties":{"address":"59 4th Ave New York NY, 10003","name":"Tozt Cafe"},"geometry":{"type":"Point","coordinates":[-73.99046,40.730686]}},{"type":"Feature","properties":{"address":"31 Shore Rd Pelham NY, 10803","name":"Travers Island"},"geometry":{"type":"Point","coordinates":[-73.79378,40.884087]}},{"type":"Feature","properties":{"address":"393 Canal St New York NY, 10013","name":"Tribeca Finest"},"geometry":{"type":"Point","coordinates":[-74.005119,40.721703]}},{"type":"Feature","properties":{"address":"564 Beach 136th St Rockaway Park NY, 11694","name":"Twisted Distributors"},"geometry":{"type":"Point","coordinates":[-73.856662,40.57902]}},{"type":"Feature","properties":{"address":"1501 Jericho Turnpike New Hyde Park NY, 11040","name":"Ultra"},"geometry":{"type":"Point","coordinates":[-73.679785,40.733765]}},{"type":"Feature","properties":{"address":"11 Broadway Brooklyn NY, 11249","name":"Urban Market"},"geometry":{"type":"Point","coordinates":[-73.967981,40.710758]}},{"type":"Feature","properties":{"address":"690 Main St New Rochelle NY, 10801","name":"Us Petroleum"},"geometry":{"type":"Point","coordinates":[-73.787913,40.904563]}},{"type":"Feature","properties":{"address":"818 Manhattan Ave Brooklyn NY, 11222","name":"Usa Deli"},"geometry":{"type":"Point","coordinates":[-73.953379,40.728333]}},{"type":"Feature","properties":{"address":"23-31 91st St East Elmhurst NY, 11369","name":"V & K Beverages Trading Inc."},"geometry":{"type":"Point","coordinates":[-73.878896,40.766896]}},{"type":"Feature","properties":{"address":"21-01 31st St Astoria NY, 11105","name":"Verdi Fresh"},"geometry":{"type":"Point","coordinates":[-73.908635,40.777848]}},{"type":"Feature","properties":{"address":"116-15 Metropolitan Ave Richmond Hill NY, 11418","name":"Vetelios Mrket Place"},"geometry":{"type":"Point","coordinates":[-73.835501,40.707303]}},{"type":"Feature","properties":{"address":"136 1st Ave New York NY, 10009","name":"Village Cafe And Smoke"},"geometry":{"type":"Point","coordinates":[-73.985217,40.727718]}},{"type":"Feature","properties":{"address":"8 Centre Ave East Rockaway NY, 11518","name":"Village Convenience."},"geometry":{"type":"Point","coordinates":[-73.665454,40.649338]}},{"type":"Feature","properties":{"address":"146 2nd Ave New York NY, 10003","name":"Village Farm"},"geometry":{"type":"Point","coordinates":[-73.987104,40.729341]}},{"type":"Feature","properties":{"address":"113 1st Ave New York NY, 10003","name":"Village Farms"},"geometry":{"type":"Point","coordinates":[-73.985827,40.726904]}},{"type":"Feature","properties":{"address":"5665 Broadway Bronx NY, 10463","name":"Villas Market Place"},"geometry":{"type":"Point","coordinates":[-73.903258,40.880874]}},{"type":"Feature","properties":{"address":"1268 Virginia Deli Bronx NY, 10472","name":"Virginia Deli"},"geometry":{"type":"Point","coordinates":[-73.8615,40.83253]}},{"type":"Feature","properties":{"address":"46-03 Broadway Astoria NY, 11103","name":"Vitality & Health"},"geometry":{"type":"Point","coordinates":[-73.91401,40.756624]}},{"type":"Feature","properties":{"address":"71-76 Yellowstone Blvd Forest Hills NY, 11375","name":"Vitelios Marketplace"},"geometry":{"type":"Point","coordinates":[-73.855346,40.720721]}},{"type":"Feature","properties":{"address":"112 Central Ave Brooklyn NY, 11221","name":"Vitis Corner Market"},"geometry":{"type":"Point","coordinates":[-73.928906,40.700217]}},{"type":"Feature","properties":{"address":"87 Wythe Ave Brooklyn NY, 11249","name":"Walk In Deli"},"geometry":{"type":"Point","coordinates":[-73.958517,40.721303]}},{"type":"Feature","properties":{"address":"213 8th Ave New York NY, 10011","name":"West 21 Deli And Grocery"},"geometry":{"type":"Point","coordinates":[-73.999465,40.743944]}},{"type":"Feature","properties":{"address":"84 3rd Ave New York NY, 10003","name":"West Side Market"},"geometry":{"type":"Point","coordinates":[-73.988314,40.731742]}},{"type":"Feature","properties":{"address":"84 7th Ave S New York NY, 10014","name":"West Village Finest Deli"},"geometry":{"type":"Point","coordinates":[-74.003344,40.732668]}},{"type":"Feature","properties":{"address":"530 Main St New York NY, 10044","name":"Wholesome Factory Market"},"geometry":{"type":"Point","coordinates":[-73.950213,40.761378]}},{"type":"Feature","properties":{"address":"296 Leonard St Brooklyn NY, 11211","name":"William Organic Market"},"geometry":{"type":"Point","coordinates":[-73.947735,40.714356]}},{"type":"Feature","properties":{"address":"388 6th Ave New York NY, 10011","name":"Wilsea Partners Llc"},"geometry":{"type":"Point","coordinates":[-73.999848,40.733206]}},{"type":"Feature","properties":{"address":"233-20 Hillside Ave Queens Village NY, 11427","name":"Winchester Deli"},"geometry":{"type":"Point","coordinates":[-73.736188,40.73348]}},{"type":"Feature","properties":{"address":"1034 Wyckoff Ave Brooklyn NY, 11237","name":"Wykoff Deli"},"geometry":{"type":"Point","coordinates":[-73.904473,40.695813]}},{"type":"Feature","properties":{"address":"647 E 11th St New York NY, 10009","name":"Yankee Deli"},"geometry":{"type":"Point","coordinates":[-73.977777,40.726752]}},{"type":"Feature","properties":{"address":"26-32 Skillman Ave Long Island City NY, 11101","name":"Yards Bar And Grill - Motel 6"},"geometry":{"type":"Point","coordinates":[-73.940675,40.744281]}},{"type":"Feature","properties":{"address":"53 2nd Ave New York NY, 10003","name":"Yem Yem Falafel"},"geometry":{"type":"Point","coordinates":[-73.989797,40.725677]}},{"type":"Feature","properties":{"address":"4119 Broadway New York NY, 10033","name":"Yummilicious Deli Corp"},"geometry":{"type":"Point","coordinates":[-73.938653,40.845546]}}]}